{
"type": "FeatureCollection",
"crs": { "type": "name", "properties": { "name": "urn:ogc:def:crs:OGC:1.3:CRS84" } },
                                                                                
"features": [
{ "type": "Feature", "properties": { "osm_id": "node\/61962807", "name": "Einkaufsladen", "opening_ho": null, "shop": "supermarket", "wheelchair": null, "operator": null, "website": null, "organic": null, "amenity": null, "brand": null, "ref_vatin": null, "note": null, "alt_name": null, "old_name": null }, "geometry": { "type": "Point", "coordinates": [ 11.456278700009902, 46.483934399980399 ] } },
{ "type": "Feature", "properties": { "osm_id": "node\/61964178", "name": "Despar Tiers - Tires", "opening_ho": "Mo-Fr 07:30-12:00,15:00-19:00;Sa 07:30-12:00,15:00-18:00", "shop": "supermarket", "wheelchair": null, "operator": null, "website": null, "organic": null, "amenity": null, "brand": null, "ref_vatin": null, "note": "hier gibts auch Kletterausrüstung, etc", "alt_name": null, "old_name": null }, "geometry": { "type": "Point", "coordinates": [ 11.525680000011366, 46.468710699976846 ] } },
{ "type": "Feature", "properties": { "osm_id": "node\/64777142", "name": "Sarentino - Sarnthein", "opening_ho": null, "shop": "supermarket", "wheelchair": null, "operator": null, "website": null, "organic": null, "amenity": null, "brand": null, "ref_vatin": null, "note": null, "alt_name": null, "old_name": null }, "geometry": { "type": "Point", "coordinates": [ 11.355956600007939, 46.643782199984663 ] } },
{ "type": "Feature", "properties": { "osm_id": "node\/95107093", "name": "PAM", "opening_ho": null, "shop": "supermarket", "wheelchair": null, "operator": null, "website": null, "organic": null, "amenity": null, "brand": null, "ref_vatin": null, "note": null, "alt_name": null, "old_name": null }, "geometry": { "type": "Point", "coordinates": [ 13.774331100021483, 45.639869098978529 ] } },
{ "type": "Feature", "properties": { "osm_id": "node\/95109123", "name": "COOP", "opening_ho": null, "shop": "supermarket", "wheelchair": null, "operator": null, "website": null, "organic": null, "amenity": null, "brand": null, "ref_vatin": null, "note": null, "alt_name": null, "old_name": null }, "geometry": { "type": "Point", "coordinates": [ 13.818404800008723, 45.627154998921419 ] } },
{ "type": "Feature", "properties": { "osm_id": "node\/98287810", "name": "Auchan", "opening_ho": null, "shop": "supermarket", "wheelchair": null, "operator": null, "website": null, "organic": null, "amenity": null, "brand": null, "ref_vatin": null, "note": null, "alt_name": null, "old_name": null }, "geometry": { "type": "Point", "coordinates": [ 14.15518540021224, 42.415894798572062 ] } },
{ "type": "Feature", "properties": { "osm_id": "node\/117606346", "name": "Bennet", "opening_ho": null, "shop": "supermarket", "wheelchair": null, "operator": "Bennet", "website": null, "organic": null, "amenity": null, "brand": null, "ref_vatin": null, "note": null, "alt_name": null, "old_name": null }, "geometry": { "type": "Point", "coordinates": [ 9.0633798, 45.8373145 ] } },
{ "type": "Feature", "properties": { "osm_id": "node\/123394976", "name": "Despar", "opening_ho": "Mo-Fr 07:45-19:00; Sa 07:45-18:00", "shop": "supermarket", "wheelchair": null, "operator": null, "website": null, "organic": null, "amenity": null, "brand": null, "ref_vatin": null, "note": null, "alt_name": null, "old_name": null }, "geometry": { "type": "Point", "coordinates": [ 11.225426600005903, 46.77968819998906 ] } },
{ "type": "Feature", "properties": { "osm_id": "node\/203398457", "name": "Auchan", "opening_ho": "Mo-Sa 08:30-21:00; Su off", "shop": "supermarket", "wheelchair": null, "operator": null, "website": null, "organic": null, "amenity": null, "brand": null, "ref_vatin": null, "note": null, "alt_name": null, "old_name": null }, "geometry": { "type": "Point", "coordinates": [ 14.185449400203606, 42.427248698520721 ] } },
{ "type": "Feature", "properties": { "osm_id": "node\/228068014", "name": "4 Petroli;Eurospin", "opening_ho": null, "shop": "supermarket", "wheelchair": "yes", "operator": "4 Petroli", "website": null, "organic": null, "amenity": "fuel", "brand": "4 Petroli", "ref_vatin": null, "note": null, "alt_name": null, "old_name": null }, "geometry": { "type": "Point", "coordinates": [ 10.782822400002349, 43.877318099997353 ] } },
{ "type": "Feature", "properties": { "osm_id": "node\/243670890", "name": "Dico", "opening_ho": null, "shop": "supermarket", "wheelchair": null, "operator": null, "website": null, "organic": null, "amenity": null, "brand": null, "ref_vatin": null, "note": null, "alt_name": null, "old_name": null }, "geometry": { "type": "Point", "coordinates": [ 10.395547900000672, 43.732294799999387 ] } },
{ "type": "Feature", "properties": { "osm_id": "node\/246819268", "name": null, "opening_ho": null, "shop": "supermarket", "wheelchair": null, "operator": null, "website": null, "organic": null, "amenity": null, "brand": null, "ref_vatin": null, "note": null, "alt_name": null, "old_name": null }, "geometry": { "type": "Point", "coordinates": [ 7.703621299999574, 45.092379499999574 ] } },
{ "type": "Feature", "properties": { "osm_id": "node\/246824462", "name": "Cesare e Rita alimentare", "opening_ho": null, "shop": "supermarket", "wheelchair": null, "operator": null, "website": null, "organic": null, "amenity": null, "brand": null, "ref_vatin": null, "note": null, "alt_name": null, "old_name": null }, "geometry": { "type": "Point", "coordinates": [ 7.724275999999589, 44.312647899999639 ] } },
{ "type": "Feature", "properties": { "osm_id": "node\/246968323", "name": "CRAI", "opening_ho": null, "shop": "supermarket", "wheelchair": null, "operator": null, "website": null, "organic": null, "amenity": null, "brand": null, "ref_vatin": null, "note": null, "alt_name": null, "old_name": null }, "geometry": { "type": "Point", "coordinates": [ 12.174821400050538, 42.258466499921774 ] } },
{ "type": "Feature", "properties": { "osm_id": "node\/246968646", "name": "Simply", "opening_ho": null, "shop": "supermarket", "wheelchair": null, "operator": null, "website": null, "organic": null, "amenity": null, "brand": null, "ref_vatin": null, "note": null, "alt_name": null, "old_name": null }, "geometry": { "type": "Point", "coordinates": [ 12.167553800049967, 42.258008899922856 ] } },
{ "type": "Feature", "properties": { "osm_id": "node\/247350148", "name": "Ekom", "opening_ho": "Mo-Sa 9:00-21:00", "shop": "supermarket", "wheelchair": null, "operator": "Ekom", "website": null, "organic": null, "amenity": null, "brand": null, "ref_vatin": null, "note": null, "alt_name": null, "old_name": null }, "geometry": { "type": "Point", "coordinates": [ 8.9930921, 44.3990842 ] } },
{ "type": "Feature", "properties": { "osm_id": "node\/247350179", "name": "Ekom", "opening_ho": null, "shop": "supermarket", "wheelchair": null, "operator": "Fa.Ge. srl", "website": null, "organic": null, "amenity": null, "brand": "Ekom", "ref_vatin": "IT03380980106", "note": null, "alt_name": null, "old_name": null }, "geometry": { "type": "Point", "coordinates": [ 8.9797613, 44.4537611 ] } },
{ "type": "Feature", "properties": { "osm_id": "node\/247805093", "name": "Pam", "opening_ho": null, "shop": "supermarket", "wheelchair": null, "operator": null, "website": null, "organic": null, "amenity": null, "brand": null, "ref_vatin": null, "note": null, "alt_name": null, "old_name": null }, "geometry": { "type": "Point", "coordinates": [ 10.257326500000389, 43.86861889999966 ] } },
{ "type": "Feature", "properties": { "osm_id": "node\/247857496", "name": null, "opening_ho": null, "shop": "supermarket", "wheelchair": null, "operator": null, "website": null, "organic": null, "amenity": null, "brand": null, "ref_vatin": null, "note": null, "alt_name": null, "old_name": null }, "geometry": { "type": "Point", "coordinates": [ 10.579975100001274, 43.670819899998719 ] } },
{ "type": "Feature", "properties": { "osm_id": "node\/247873660", "name": null, "opening_ho": null, "shop": "supermarket", "wheelchair": null, "operator": null, "website": null, "organic": null, "amenity": null, "brand": null, "ref_vatin": null, "note": null, "alt_name": null, "old_name": null }, "geometry": { "type": "Point", "coordinates": [ 10.518046500001036, 43.696200799998998 ] } },
{ "type": "Feature", "properties": { "osm_id": "node\/247885955", "name": "Penny Market", "opening_ho": null, "shop": "supermarket", "wheelchair": null, "operator": null, "website": null, "organic": null, "amenity": null, "brand": null, "ref_vatin": null, "note": null, "alt_name": null, "old_name": null }, "geometry": { "type": "Point", "coordinates": [ 10.596514500001346, 43.669962499998647 ] } },
{ "type": "Feature", "properties": { "osm_id": "node\/247985794", "name": null, "opening_ho": null, "shop": "supermarket", "wheelchair": null, "operator": null, "website": null, "organic": null, "amenity": null, "brand": null, "ref_vatin": null, "note": null, "alt_name": null, "old_name": null }, "geometry": { "type": "Point", "coordinates": [ 7.708376099999563, 44.304024899999604 ] } },
{ "type": "Feature", "properties": { "osm_id": "node\/248051531", "name": "Famiglia Cooperativa", "opening_ho": "Mo-Fr 08:10-12:20,16:00-19:00; We,Sa 08:10-12:20", "shop": "supermarket", "wheelchair": null, "operator": null, "website": null, "organic": null, "amenity": null, "brand": null, "ref_vatin": "IT00108150228", "note": null, "alt_name": null, "old_name": null }, "geometry": { "type": "Point", "coordinates": [ 11.139650500005143, 46.070691199991522 ] } },
{ "type": "Feature", "properties": { "osm_id": "node\/248135772", "name": "TD", "opening_ho": null, "shop": "supermarket", "wheelchair": null, "operator": null, "website": null, "organic": null, "amenity": null, "brand": null, "ref_vatin": null, "note": null, "alt_name": null, "old_name": null }, "geometry": { "type": "Point", "coordinates": [ 12.125580300046646, 42.28628909992868 ] } },
{ "type": "Feature", "properties": { "osm_id": "node\/248765359", "name": "COOP", "opening_ho": null, "shop": "supermarket", "wheelchair": null, "operator": null, "website": null, "organic": null, "amenity": null, "brand": null, "ref_vatin": null, "note": null, "alt_name": null, "old_name": null }, "geometry": { "type": "Point", "coordinates": [ 12.337899800060157, 43.080278799890543 ] } },
{ "type": "Feature", "properties": { "osm_id": "node\/248908257", "name": "Esselunga di viale Del Prete", "opening_ho": null, "shop": "supermarket", "wheelchair": null, "operator": null, "website": "www.esselunga.it", "organic": null, "amenity": null, "brand": "Esselunga", "ref_vatin": null, "note": null, "alt_name": null, "old_name": null }, "geometry": { "type": "Point", "coordinates": [ 10.499009600000962, 43.848642199999077 ] } },
{ "type": "Feature", "properties": { "osm_id": "node\/249385950", "name": null, "opening_ho": null, "shop": "supermarket", "wheelchair": null, "operator": null, "website": null, "organic": null, "amenity": null, "brand": null, "ref_vatin": null, "note": null, "alt_name": null, "old_name": null }, "geometry": { "type": "Point", "coordinates": [ 11.511551300011247, 46.289816499977725 ] } },
{ "type": "Feature", "properties": { "osm_id": "node\/249546514", "name": "PAM", "opening_ho": null, "shop": "supermarket", "wheelchair": null, "operator": null, "website": null, "organic": null, "amenity": null, "brand": null, "ref_vatin": null, "note": null, "alt_name": null, "old_name": null }, "geometry": { "type": "Point", "coordinates": [ 13.772888000020677, 45.657637798979806 ] } },
{ "type": "Feature", "properties": { "osm_id": "node\/249698314", "name": "Il Gigante", "opening_ho": null, "shop": "supermarket", "wheelchair": "yes", "operator": null, "website": "http:\/\/www.ilgigante.it\/", "organic": null, "amenity": null, "brand": null, "ref_vatin": null, "note": null, "alt_name": null, "old_name": null }, "geometry": { "type": "Point", "coordinates": [ 9.2285762, 45.5610245 ] } },
{ "type": "Feature", "properties": { "osm_id": "node\/250052540", "name": "IperCoop", "opening_ho": null, "shop": "supermarket", "wheelchair": null, "operator": null, "website": null, "organic": null, "amenity": null, "brand": null, "ref_vatin": null, "note": null, "alt_name": null, "old_name": null }, "geometry": { "type": "Point", "coordinates": [ 14.167756700209454, 42.414881898551286 ] } },
{ "type": "Feature", "properties": { "osm_id": "node\/250969620", "name": "LIDL", "opening_ho": null, "shop": "supermarket", "wheelchair": null, "operator": null, "website": null, "organic": null, "amenity": null, "brand": null, "ref_vatin": null, "note": null, "alt_name": null, "old_name": null }, "geometry": { "type": "Point", "coordinates": [ 9.1420016, 45.447585 ] } },
{ "type": "Feature", "properties": { "osm_id": "node\/251864987", "name": "Cantina Sociale di Argelato", "opening_ho": null, "shop": "supermarket", "wheelchair": null, "operator": null, "website": null, "organic": null, "amenity": null, "brand": null, "ref_vatin": null, "note": null, "alt_name": "Cantinone di Argelato", "old_name": null }, "geometry": { "type": "Point", "coordinates": [ 11.35411090000933, 44.639491099985648 ] } },
{ "type": "Feature", "properties": { "osm_id": "node\/251864999", "name": "D'Italy", "opening_ho": null, "shop": "supermarket", "wheelchair": null, "operator": null, "website": null, "organic": null, "amenity": null, "brand": null, "ref_vatin": null, "note": null, "alt_name": null, "old_name": null }, "geometry": { "type": "Point", "coordinates": [ 11.351855300009284, 44.640880499985734 ] } },
{ "type": "Feature", "properties": { "osm_id": "node\/252168390", "name": "Pam", "opening_ho": null, "shop": "supermarket", "wheelchair": "yes", "operator": "Pam", "website": null, "organic": null, "amenity": null, "brand": null, "ref_vatin": null, "note": null, "alt_name": null, "old_name": null }, "geometry": { "type": "Point", "coordinates": [ 11.338392400009111, 44.49912329998628 ] } },
{ "type": "Feature", "properties": { "osm_id": "node\/253560601", "name": "Penny Market Caprona", "opening_ho": null, "shop": "supermarket", "wheelchair": null, "operator": null, "website": null, "organic": null, "amenity": null, "brand": null, "ref_vatin": null, "note": null, "alt_name": null, "old_name": null }, "geometry": { "type": "Point", "coordinates": [ 10.506839800000996, 43.70435619999904 ] } },
{ "type": "Feature", "properties": { "osm_id": "node\/253870571", "name": "Brico Center", "opening_ho": null, "shop": "supermarket", "wheelchair": null, "operator": null, "website": null, "organic": null, "amenity": null, "brand": null, "ref_vatin": null, "note": null, "alt_name": null, "old_name": null }, "geometry": { "type": "Point", "coordinates": [ 11.512894900012055, 45.545021299978131 ] } },
{ "type": "Feature", "properties": { "osm_id": "node\/254083201", "name": "Carrefour express", "opening_ho": null, "shop": "supermarket", "wheelchair": null, "operator": null, "website": null, "organic": null, "amenity": null, "brand": null, "ref_vatin": null, "note": null, "alt_name": null, "old_name": null }, "geometry": { "type": "Point", "coordinates": [ 8.9584775, 44.412114099999982 ] } },
{ "type": "Feature", "properties": { "osm_id": "node\/254486445", "name": "Carrefour Express", "opening_ho": null, "shop": "supermarket", "wheelchair": null, "operator": null, "website": null, "organic": null, "amenity": null, "brand": null, "ref_vatin": null, "note": null, "alt_name": null, "old_name": null }, "geometry": { "type": "Point", "coordinates": [ 8.9415004, 44.4040684 ] } },
{ "type": "Feature", "properties": { "osm_id": "node\/254563704", "name": "Penny Market", "opening_ho": null, "shop": "supermarket", "wheelchair": null, "operator": null, "website": null, "organic": null, "amenity": null, "brand": null, "ref_vatin": null, "note": null, "alt_name": null, "old_name": null }, "geometry": { "type": "Point", "coordinates": [ 8.9693073, 44.4118352 ] } },
{ "type": "Feature", "properties": { "osm_id": "node\/254563903", "name": "Tuodì Market", "opening_ho": null, "shop": "supermarket", "wheelchair": null, "operator": null, "website": null, "organic": null, "amenity": null, "brand": null, "ref_vatin": null, "note": null, "alt_name": null, "old_name": null }, "geometry": { "type": "Point", "coordinates": [ 8.9588832, 44.4078263 ] } },
{ "type": "Feature", "properties": { "osm_id": "node\/254564079", "name": "Basko", "opening_ho": null, "shop": "supermarket", "wheelchair": null, "operator": null, "website": null, "organic": null, "amenity": null, "brand": null, "ref_vatin": null, "note": null, "alt_name": null, "old_name": null }, "geometry": { "type": "Point", "coordinates": [ 8.9588144, 44.4069461 ] } },
{ "type": "Feature", "properties": { "osm_id": "node\/254675232", "name": "Famila", "opening_ho": null, "shop": "supermarket", "wheelchair": null, "operator": "Famila", "website": null, "organic": null, "amenity": null, "brand": null, "ref_vatin": "IT01274580248", "note": null, "alt_name": null, "old_name": null }, "geometry": { "type": "Point", "coordinates": [ 11.566362200013369, 45.558159499975176 ] } },
{ "type": "Feature", "properties": { "osm_id": "node\/255137455", "name": "U2", "opening_ho": null, "shop": "supermarket", "wheelchair": null, "operator": "Unes", "website": null, "organic": null, "amenity": null, "brand": null, "ref_vatin": null, "note": null, "alt_name": null, "old_name": "Unes" }, "geometry": { "type": "Point", "coordinates": [ 9.2418033, 45.4879879 ] } },
{ "type": "Feature", "properties": { "osm_id": "node\/255189569", "name": "Carrefour Express", "opening_ho": null, "shop": "supermarket", "wheelchair": null, "operator": null, "website": null, "organic": null, "amenity": null, "brand": null, "ref_vatin": null, "note": null, "alt_name": null, "old_name": null }, "geometry": { "type": "Point", "coordinates": [ 8.9534776, 44.6118533 ] } },
{ "type": "Feature", "properties": { "osm_id": "node\/255189874", "name": "Noi Simply", "opening_ho": "Mo-Sa 08:30-20:00; Th 08:30-13:00", "shop": "supermarket", "wheelchair": null, "operator": "Gruppo Auchan", "website": null, "organic": null, "amenity": null, "brand": null, "ref_vatin": null, "note": null, "alt_name": null, "old_name": null }, "geometry": { "type": "Point", "coordinates": [ 8.969851, 44.4205722 ] } },
{ "type": "Feature", "properties": { "osm_id": "node\/255328809", "name": "Conad", "opening_ho": null, "shop": "supermarket", "wheelchair": null, "operator": "Euforia s.r.l.", "website": null, "organic": null, "amenity": null, "brand": null, "ref_vatin": null, "note": null, "alt_name": null, "old_name": null }, "geometry": { "type": "Point", "coordinates": [ 10.2616495000004, 43.853109599999677 ] } },
{ "type": "Feature", "properties": { "osm_id": "node\/255386961", "name": "Ekom", "opening_ho": null, "shop": "supermarket", "wheelchair": null, "operator": null, "website": null, "organic": null, "amenity": null, "brand": null, "ref_vatin": null, "note": null, "alt_name": null, "old_name": null }, "geometry": { "type": "Point", "coordinates": [ 8.9690625, 44.4110079 ] } },
{ "type": "Feature", "properties": { "osm_id": "node\/255508749", "name": "Iper Portello", "opening_ho": null, "shop": "supermarket", "wheelchair": "yes", "operator": "Iper Montebello S.p.A.", "website": null, "organic": null, "amenity": null, "brand": null, "ref_vatin": "IT03585750155", "note": null, "alt_name": null, "old_name": null }, "geometry": { "type": "Point", "coordinates": [ 9.1454007, 45.4901442 ] } },
{ "type": "Feature", "properties": { "osm_id": "node\/256072065", "name": "Eurospar", "opening_ho": "Mo-Sa 08:30-20:00; We 08:30-13:00", "shop": "supermarket", "wheelchair": "yes", "operator": null, "website": "http:\/\/www.edespar.it\/it\/punti_vendita_scheda.php\/nome=aspiag_service_srl\/id_pv=63", "organic": null, "amenity": null, "brand": null, "ref_vatin": null, "note": null, "alt_name": null, "old_name": null }, "geometry": { "type": "Point", "coordinates": [ 11.85792730002292, 45.410627799952927 ] } },
{ "type": "Feature", "properties": { "osm_id": "node\/256224275", "name": "Carrefour Express", "opening_ho": null, "shop": "supermarket", "wheelchair": null, "operator": null, "website": null, "organic": null, "amenity": null, "brand": null, "ref_vatin": null, "note": null, "alt_name": null, "old_name": null }, "geometry": { "type": "Point", "coordinates": [ 8.956609, 44.4037679 ] } },
{ "type": "Feature", "properties": { "osm_id": "node\/256224298", "name": "Carrefour Express", "opening_ho": null, "shop": "supermarket", "wheelchair": null, "operator": null, "website": null, "organic": null, "amenity": null, "brand": null, "ref_vatin": null, "note": null, "alt_name": null, "old_name": null }, "geometry": { "type": "Point", "coordinates": [ 8.9476444, 44.4015999 ] } },
{ "type": "Feature", "properties": { "osm_id": "node\/256404094", "name": "Carrefour Express", "opening_ho": null, "shop": "supermarket", "wheelchair": null, "operator": null, "website": null, "organic": null, "amenity": null, "brand": null, "ref_vatin": null, "note": null, "alt_name": null, "old_name": null }, "geometry": { "type": "Point", "coordinates": [ 8.9421447, 44.4068726 ] } },
{ "type": "Feature", "properties": { "osm_id": "node\/256409484", "name": "Carrefour Express", "opening_ho": null, "shop": "supermarket", "wheelchair": null, "operator": null, "website": null, "organic": null, "amenity": null, "brand": null, "ref_vatin": null, "note": null, "alt_name": null, "old_name": null }, "geometry": { "type": "Point", "coordinates": [ 8.9479925, 44.3968261 ] } },
{ "type": "Feature", "properties": { "osm_id": "node\/256409487", "name": "Di meglio", "opening_ho": null, "shop": "supermarket", "wheelchair": null, "operator": null, "website": null, "organic": null, "amenity": null, "brand": null, "ref_vatin": null, "note": null, "alt_name": null, "old_name": null }, "geometry": { "type": "Point", "coordinates": [ 8.9479928, 44.3971682 ] } },
{ "type": "Feature", "properties": { "osm_id": "node\/256423624", "name": "Pam", "opening_ho": null, "shop": "supermarket", "wheelchair": null, "operator": "PAM", "website": null, "organic": null, "amenity": null, "brand": null, "ref_vatin": null, "note": null, "alt_name": null, "old_name": null }, "geometry": { "type": "Point", "coordinates": [ 8.9660421, 44.4087484 ] } },
{ "type": "Feature", "properties": { "osm_id": "node\/256569154", "name": "Carrefour Express", "opening_ho": null, "shop": "supermarket", "wheelchair": null, "operator": null, "website": null, "organic": null, "amenity": null, "brand": null, "ref_vatin": null, "note": null, "alt_name": null, "old_name": null }, "geometry": { "type": "Point", "coordinates": [ 8.9561795, 44.4160394 ] } },
{ "type": "Feature", "properties": { "osm_id": "node\/256569171", "name": "In's", "opening_ho": null, "shop": "supermarket", "wheelchair": null, "operator": null, "website": null, "organic": null, "amenity": null, "brand": null, "ref_vatin": null, "note": null, "alt_name": null, "old_name": null }, "geometry": { "type": "Point", "coordinates": [ 8.9553915, 44.4143181 ] } },
{ "type": "Feature", "properties": { "osm_id": "node\/256569202", "name": "Conad", "opening_ho": null, "shop": "supermarket", "wheelchair": null, "operator": null, "website": null, "organic": null, "amenity": null, "brand": null, "ref_vatin": null, "note": null, "alt_name": null, "old_name": null }, "geometry": { "type": "Point", "coordinates": [ 8.9543264, 44.4138884 ] } },
{ "type": "Feature", "properties": { "osm_id": "node\/256569576", "name": "Tuodì Market", "opening_ho": null, "shop": "supermarket", "wheelchair": null, "operator": null, "website": null, "organic": null, "amenity": null, "brand": null, "ref_vatin": null, "note": null, "alt_name": null, "old_name": null }, "geometry": { "type": "Point", "coordinates": [ 8.9559135, 44.412101599999986 ] } },
{ "type": "Feature", "properties": { "osm_id": "node\/256569706", "name": "Conad city", "opening_ho": null, "shop": "supermarket", "wheelchair": null, "operator": null, "website": null, "organic": null, "amenity": null, "brand": null, "ref_vatin": null, "note": null, "alt_name": null, "old_name": null }, "geometry": { "type": "Point", "coordinates": [ 8.9543622, 44.4104917 ] } },
{ "type": "Feature", "properties": { "osm_id": "node\/256569726", "name": "Ekom", "opening_ho": null, "shop": "supermarket", "wheelchair": null, "operator": null, "website": null, "organic": null, "amenity": null, "brand": null, "ref_vatin": null, "note": null, "alt_name": null, "old_name": null }, "geometry": { "type": "Point", "coordinates": [ 8.9523116, 44.406478 ] } },
{ "type": "Feature", "properties": { "osm_id": "node\/256570002", "name": "Billa", "opening_ho": null, "shop": "supermarket", "wheelchair": "yes", "operator": null, "website": null, "organic": null, "amenity": null, "brand": null, "ref_vatin": null, "note": null, "alt_name": null, "old_name": null }, "geometry": { "type": "Point", "coordinates": [ 8.946733, 44.3984756 ] } },
{ "type": "Feature", "properties": { "osm_id": "node\/256592970", "name": "EMMEpiù", "opening_ho": null, "shop": "supermarket", "wheelchair": null, "operator": null, "website": null, "organic": null, "amenity": null, "brand": null, "ref_vatin": null, "note": null, "alt_name": null, "old_name": null }, "geometry": { "type": "Point", "coordinates": [ 12.509465400085071, 41.893109999859853 ] } },
{ "type": "Feature", "properties": { "osm_id": "node\/256764943", "name": "Ekom", "opening_ho": null, "shop": "supermarket", "wheelchair": null, "operator": null, "website": null, "organic": null, "amenity": null, "brand": null, "ref_vatin": null, "note": null, "alt_name": null, "old_name": null }, "geometry": { "type": "Point", "coordinates": [ 8.9496054, 44.4161809 ] } },
{ "type": "Feature", "properties": { "osm_id": "node\/256765095", "name": "Lidl", "opening_ho": null, "shop": "supermarket", "wheelchair": null, "operator": null, "website": "www.lidl.it", "organic": null, "amenity": null, "brand": null, "ref_vatin": null, "note": null, "alt_name": null, "old_name": null }, "geometry": { "type": "Point", "coordinates": [ 8.9539658, 44.4156492 ] } },
{ "type": "Feature", "properties": { "osm_id": "node\/256819101", "name": "Coop", "opening_ho": null, "shop": "supermarket", "wheelchair": null, "operator": null, "website": null, "organic": null, "amenity": null, "brand": null, "ref_vatin": null, "note": null, "alt_name": null, "old_name": null }, "geometry": { "type": "Point", "coordinates": [ 10.246091100000372, 43.89050179999969 ] } },
{ "type": "Feature", "properties": { "osm_id": "node\/256873877", "name": null, "opening_ho": null, "shop": "supermarket", "wheelchair": null, "operator": "SISA", "website": null, "organic": null, "amenity": null, "brand": null, "ref_vatin": null, "note": null, "alt_name": null, "old_name": null }, "geometry": { "type": "Point", "coordinates": [ 9.4306954, 45.5012906 ] } },
{ "type": "Feature", "properties": { "osm_id": "node\/256892718", "name": null, "opening_ho": null, "shop": "supermarket", "wheelchair": "limited", "operator": "SMA", "website": null, "organic": null, "amenity": null, "brand": null, "ref_vatin": null, "note": null, "alt_name": null, "old_name": null }, "geometry": { "type": "Point", "coordinates": [ 9.4294226, 45.5063787 ] } },
{ "type": "Feature", "properties": { "osm_id": "node\/256951676", "name": "Ekom", "opening_ho": null, "shop": "supermarket", "wheelchair": null, "operator": null, "website": null, "organic": null, "amenity": null, "brand": null, "ref_vatin": null, "note": null, "alt_name": null, "old_name": null }, "geometry": { "type": "Point", "coordinates": [ 8.9473785, 44.4185571 ] } },
{ "type": "Feature", "properties": { "osm_id": "node\/256951721", "name": "Ekom", "opening_ho": null, "shop": "supermarket", "wheelchair": null, "operator": "Nume srl", "website": null, "organic": null, "amenity": null, "brand": null, "ref_vatin": "IT03383830100", "note": null, "alt_name": null, "old_name": null }, "geometry": { "type": "Point", "coordinates": [ 8.9498292, 44.4199607 ] } },
{ "type": "Feature", "properties": { "osm_id": "node\/257047380", "name": "SuperDì", "opening_ho": null, "shop": "supermarket", "wheelchair": null, "operator": "SuperDì", "website": null, "organic": null, "amenity": null, "brand": null, "ref_vatin": null, "note": null, "alt_name": null, "old_name": null }, "geometry": { "type": "Point", "coordinates": [ 9.1935547, 45.5256481 ] } },
{ "type": "Feature", "properties": { "osm_id": "node\/257349125", "name": "Prix", "opening_ho": null, "shop": "supermarket", "wheelchair": null, "operator": "PRIX", "website": null, "organic": null, "amenity": null, "brand": null, "ref_vatin": null, "note": null, "alt_name": null, "old_name": null }, "geometry": { "type": "Point", "coordinates": [ 11.57230890001351, 45.569619999974826 ] } },
{ "type": "Feature", "properties": { "osm_id": "node\/257526255", "name": "Coop", "opening_ho": null, "shop": "supermarket", "wheelchair": null, "operator": "COOP", "website": null, "organic": null, "amenity": null, "brand": "COOP", "ref_vatin": null, "note": null, "alt_name": null, "old_name": null }, "geometry": { "type": "Point", "coordinates": [ 11.798097700021366, 45.074451999958988 ] } },
{ "type": "Feature", "properties": { "osm_id": "node\/257526930", "name": "Alì", "opening_ho": null, "shop": "supermarket", "wheelchair": null, "operator": null, "website": null, "organic": null, "amenity": null, "brand": null, "ref_vatin": null, "note": null, "alt_name": null, "old_name": null }, "geometry": { "type": "Point", "coordinates": [ 11.785520100020895, 45.078283699960068 ] } },
{ "type": "Feature", "properties": { "osm_id": "node\/257527918", "name": null, "opening_ho": null, "shop": "supermarket", "wheelchair": null, "operator": null, "website": null, "organic": null, "amenity": null, "brand": null, "ref_vatin": null, "note": null, "alt_name": null, "old_name": null }, "geometry": { "type": "Point", "coordinates": [ 11.781679800020763, 45.073941499960405 ] } },
{ "type": "Feature", "properties": { "osm_id": "node\/257527919", "name": "Crai", "opening_ho": null, "shop": "supermarket", "wheelchair": null, "operator": null, "website": null, "organic": null, "amenity": null, "brand": null, "ref_vatin": null, "note": null, "alt_name": null, "old_name": null }, "geometry": { "type": "Point", "coordinates": [ 11.774207500020498, 45.069850899961047 ] } },
{ "type": "Feature", "properties": { "osm_id": "node\/257527922", "name": null, "opening_ho": null, "shop": "supermarket", "wheelchair": null, "operator": null, "website": null, "organic": null, "amenity": null, "brand": null, "ref_vatin": null, "note": null, "alt_name": null, "old_name": null }, "geometry": { "type": "Point", "coordinates": [ 11.777189500020599, 45.074233499960791 ] } },
{ "type": "Feature", "properties": { "osm_id": "node\/257539318", "name": "Carrefour Express", "opening_ho": null, "shop": "supermarket", "wheelchair": null, "operator": null, "website": null, "organic": null, "amenity": null, "brand": null, "ref_vatin": null, "note": null, "alt_name": null, "old_name": null }, "geometry": { "type": "Point", "coordinates": [ 8.9662825, 44.419263 ] } },
{ "type": "Feature", "properties": { "osm_id": "node\/257681209", "name": "Carrefour Market", "opening_ho": null, "shop": "supermarket", "wheelchair": null, "operator": null, "website": "www.carrefour.it", "organic": null, "amenity": null, "brand": null, "ref_vatin": null, "note": null, "alt_name": null, "old_name": null }, "geometry": { "type": "Point", "coordinates": [ 9.1459364, 45.4661017 ] } },
{ "type": "Feature", "properties": { "osm_id": "node\/257756543", "name": "Carrefour express", "opening_ho": null, "shop": "supermarket", "wheelchair": null, "operator": null, "website": null, "organic": null, "amenity": null, "brand": null, "ref_vatin": null, "note": null, "alt_name": null, "old_name": null }, "geometry": { "type": "Point", "coordinates": [ 8.9833002, 44.4025178 ] } },
{ "type": "Feature", "properties": { "osm_id": "node\/257921773", "name": "Coop", "opening_ho": null, "shop": "supermarket", "wheelchair": null, "operator": null, "website": null, "organic": null, "amenity": null, "brand": null, "ref_vatin": null, "note": null, "alt_name": null, "old_name": null }, "geometry": { "type": "Point", "coordinates": [ 8.9144434, 44.4191274 ] } },
{ "type": "Feature", "properties": { "osm_id": "node\/258035187", "name": "Pam", "opening_ho": null, "shop": "supermarket", "wheelchair": null, "operator": null, "website": null, "organic": null, "amenity": null, "brand": null, "ref_vatin": null, "note": null, "alt_name": null, "old_name": null }, "geometry": { "type": "Point", "coordinates": [ 9.198035, 45.4508025 ] } },
{ "type": "Feature", "properties": { "osm_id": "node\/258050347", "name": "Basko", "opening_ho": null, "shop": "supermarket", "wheelchair": null, "operator": null, "website": null, "organic": null, "amenity": null, "brand": null, "ref_vatin": null, "note": null, "alt_name": null, "old_name": null }, "geometry": { "type": "Point", "coordinates": [ 8.9755981, 44.4056154 ] } },
{ "type": "Feature", "properties": { "osm_id": "node\/258050702", "name": "Tuodì Market", "opening_ho": null, "shop": "supermarket", "wheelchair": null, "operator": null, "website": null, "organic": null, "amenity": null, "brand": null, "ref_vatin": null, "note": null, "alt_name": null, "old_name": null }, "geometry": { "type": "Point", "coordinates": [ 8.965709, 44.4052852 ] } },
{ "type": "Feature", "properties": { "osm_id": "node\/258057407", "name": "Basko", "opening_ho": null, "shop": "supermarket", "wheelchair": null, "operator": null, "website": null, "organic": null, "amenity": null, "brand": null, "ref_vatin": null, "note": null, "alt_name": null, "old_name": null }, "geometry": { "type": "Point", "coordinates": [ 8.9812044, 44.3974631 ] } },
{ "type": "Feature", "properties": { "osm_id": "node\/258058275", "name": "Carrefour express", "opening_ho": "24\/7", "shop": "supermarket", "wheelchair": "yes", "operator": null, "website": null, "organic": null, "amenity": null, "brand": null, "ref_vatin": null, "note": null, "alt_name": null, "old_name": null }, "geometry": { "type": "Point", "coordinates": [ 8.973491, 44.4060675 ] } },
{ "type": "Feature", "properties": { "osm_id": "node\/258076731", "name": "Carrefour Market", "opening_ho": null, "shop": "supermarket", "wheelchair": null, "operator": null, "website": "www.carrefour.it", "organic": null, "amenity": null, "brand": null, "ref_vatin": null, "note": null, "alt_name": null, "old_name": null }, "geometry": { "type": "Point", "coordinates": [ 9.1662644, 45.487995 ] } },
{ "type": "Feature", "properties": { "osm_id": "node\/258076763", "name": null, "opening_ho": null, "shop": "supermarket", "wheelchair": null, "operator": null, "website": null, "organic": null, "amenity": null, "brand": null, "ref_vatin": null, "note": null, "alt_name": null, "old_name": null }, "geometry": { "type": "Point", "coordinates": [ 9.1650628, 45.4887952 ] } },
{ "type": "Feature", "properties": { "osm_id": "node\/258331339", "name": "Carrefour Express", "opening_ho": null, "shop": "supermarket", "wheelchair": null, "operator": null, "website": null, "organic": null, "amenity": null, "brand": null, "ref_vatin": null, "note": null, "alt_name": null, "old_name": null }, "geometry": { "type": "Point", "coordinates": [ 8.9628944, 44.4072716 ] } },
{ "type": "Feature", "properties": { "osm_id": "node\/259182352", "name": "Doro", "opening_ho": null, "shop": "supermarket", "wheelchair": null, "operator": null, "website": null, "organic": null, "amenity": null, "brand": null, "ref_vatin": null, "note": null, "alt_name": null, "old_name": null }, "geometry": { "type": "Point", "coordinates": [ 8.9033401, 44.457176299999986 ] } },
{ "type": "Feature", "properties": { "osm_id": "node\/259182389", "name": "Carrefour express", "opening_ho": null, "shop": "supermarket", "wheelchair": null, "operator": null, "website": null, "organic": null, "amenity": null, "brand": null, "ref_vatin": null, "note": null, "alt_name": null, "old_name": null }, "geometry": { "type": "Point", "coordinates": [ 8.9023874, 44.4593695 ] } },
{ "type": "Feature", "properties": { "osm_id": "node\/259182688", "name": "Carrefour express", "opening_ho": null, "shop": "supermarket", "wheelchair": null, "operator": null, "website": null, "organic": null, "amenity": null, "brand": null, "ref_vatin": null, "note": null, "alt_name": null, "old_name": null }, "geometry": { "type": "Point", "coordinates": [ 8.9021733, 44.4569753 ] } },
{ "type": "Feature", "properties": { "osm_id": "node\/259192656", "name": "Carrefour Express", "opening_ho": null, "shop": "supermarket", "wheelchair": null, "operator": null, "website": null, "organic": null, "amenity": null, "brand": null, "ref_vatin": null, "note": null, "alt_name": null, "old_name": null }, "geometry": { "type": "Point", "coordinates": [ 8.9356018, 44.4018106 ] } },
{ "type": "Feature", "properties": { "osm_id": "node\/259456715", "name": "Basko", "opening_ho": null, "shop": "supermarket", "wheelchair": null, "operator": null, "website": null, "organic": null, "amenity": null, "brand": null, "ref_vatin": null, "note": null, "alt_name": null, "old_name": null }, "geometry": { "type": "Point", "coordinates": [ 8.9871542, 44.4074695 ] } },
{ "type": "Feature", "properties": { "osm_id": "node\/259592419", "name": "Lidl", "opening_ho": null, "shop": "supermarket", "wheelchair": "unknown", "operator": null, "website": null, "organic": null, "amenity": null, "brand": null, "ref_vatin": null, "note": null, "alt_name": null, "old_name": null }, "geometry": { "type": "Point", "coordinates": [ 9.1491516, 45.4625802 ] } },
{ "type": "Feature", "properties": { "osm_id": "node\/259977300", "name": "Lidl", "opening_ho": "Mo-Fr 08:00-14:00; Mo-Fr 15:00-21:00; Th 15:00-21:00; Sa 08:00-21:00", "shop": "supermarket", "wheelchair": null, "operator": null, "website": null, "organic": null, "amenity": null, "brand": null, "ref_vatin": null, "note": null, "alt_name": null, "old_name": null }, "geometry": { "type": "Point", "coordinates": [ 16.072382394346526, 41.308900991268963 ] } },
{ "type": "Feature", "properties": { "osm_id": "node\/260572280", "name": "Famiglia Cooperativa", "opening_ho": null, "shop": "supermarket", "wheelchair": null, "operator": null, "website": null, "organic": null, "amenity": null, "brand": null, "ref_vatin": null, "note": null, "alt_name": null, "old_name": null }, "geometry": { "type": "Point", "coordinates": [ 11.416024800009303, 46.273067699982342 ] } },
{ "type": "Feature", "properties": { "osm_id": "node\/260572772", "name": "Alimentari Cavada", "opening_ho": null, "shop": "supermarket", "wheelchair": null, "operator": null, "website": null, "organic": null, "amenity": null, "brand": null, "ref_vatin": null, "note": null, "alt_name": null, "old_name": null }, "geometry": { "type": "Point", "coordinates": [ 11.419490300009366, 46.273742799982195 ] } },
{ "type": "Feature", "properties": { "osm_id": "node\/260953974", "name": "COOP", "opening_ho": null, "shop": "supermarket", "wheelchair": null, "operator": null, "website": null, "organic": null, "amenity": null, "brand": null, "ref_vatin": null, "note": null, "alt_name": null, "old_name": null }, "geometry": { "type": "Point", "coordinates": [ 8.9506335, 44.4189466 ] } },
{ "type": "Feature", "properties": { "osm_id": "node\/261086639", "name": "Famiglia Cooperativa", "opening_ho": "Mo-Sa 08:00-12:00,16:00-19:00; Th 08:00-12:00", "shop": "supermarket", "wheelchair": null, "operator": "coop", "website": null, "organic": null, "amenity": null, "brand": null, "ref_vatin": null, "note": null, "alt_name": null, "old_name": null }, "geometry": { "type": "Point", "coordinates": [ 11.434662700009657, 46.281574899981521 ] } },
{ "type": "Feature", "properties": { "osm_id": "node\/262123818", "name": "Carrefour Express", "opening_ho": null, "shop": "supermarket", "wheelchair": null, "operator": null, "website": null, "organic": null, "amenity": null, "brand": null, "ref_vatin": null, "note": null, "alt_name": null, "old_name": null }, "geometry": { "type": "Point", "coordinates": [ 8.9617575, 44.4166314 ] } },
{ "type": "Feature", "properties": { "osm_id": "node\/262423146", "name": "Conad", "opening_ho": null, "shop": "supermarket", "wheelchair": null, "operator": null, "website": null, "organic": null, "amenity": null, "brand": null, "ref_vatin": null, "note": null, "alt_name": null, "old_name": null }, "geometry": { "type": "Point", "coordinates": [ 8.6971224, 46.0625255 ] } },
{ "type": "Feature", "properties": { "osm_id": "node\/262644301", "name": "Carrefour express", "opening_ho": null, "shop": "supermarket", "wheelchair": null, "operator": null, "website": null, "organic": null, "amenity": null, "brand": null, "ref_vatin": null, "note": null, "alt_name": null, "old_name": null }, "geometry": { "type": "Point", "coordinates": [ 8.8927529, 44.4297801 ] } },
{ "type": "Feature", "properties": { "osm_id": "node\/262644573", "name": "Carrefour Express", "opening_ho": null, "shop": "supermarket", "wheelchair": null, "operator": null, "website": null, "organic": null, "amenity": null, "brand": null, "ref_vatin": null, "note": null, "alt_name": null, "old_name": null }, "geometry": { "type": "Point", "coordinates": [ 8.8932948, 44.4310968 ] } },
{ "type": "Feature", "properties": { "osm_id": "node\/262653454", "name": "Carrefour Express", "opening_ho": null, "shop": "supermarket", "wheelchair": null, "operator": null, "website": null, "organic": null, "amenity": null, "brand": null, "ref_vatin": null, "note": null, "alt_name": null, "old_name": null }, "geometry": { "type": "Point", "coordinates": [ 8.9262977, 44.4138846 ] } },
{ "type": "Feature", "properties": { "osm_id": "node\/262655767", "name": "Dico", "opening_ho": null, "shop": "supermarket", "wheelchair": null, "operator": null, "website": null, "organic": null, "amenity": null, "brand": null, "ref_vatin": null, "note": null, "alt_name": null, "old_name": null }, "geometry": { "type": "Point", "coordinates": [ 8.8908639, 44.414934 ] } },
{ "type": "Feature", "properties": { "osm_id": "node\/262656336", "name": "PuntoSMA", "opening_ho": null, "shop": "supermarket", "wheelchair": null, "operator": null, "website": null, "organic": null, "amenity": null, "brand": null, "ref_vatin": null, "note": null, "alt_name": null, "old_name": null }, "geometry": { "type": "Point", "coordinates": [ 8.8896818, 44.413981499999984 ] } },
{ "type": "Feature", "properties": { "osm_id": "node\/262656420", "name": "Carrefour express", "opening_ho": null, "shop": "supermarket", "wheelchair": null, "operator": null, "website": null, "organic": null, "amenity": null, "brand": null, "ref_vatin": null, "note": null, "alt_name": null, "old_name": null }, "geometry": { "type": "Point", "coordinates": [ 8.8890103, 44.4145422 ] } },
{ "type": "Feature", "properties": { "osm_id": "node\/262656686", "name": "In's", "opening_ho": null, "shop": "supermarket", "wheelchair": null, "operator": null, "website": null, "organic": null, "amenity": null, "brand": null, "ref_vatin": null, "note": null, "alt_name": null, "old_name": null }, "geometry": { "type": "Point", "coordinates": [ 8.8952608, 44.4115332 ] } },
{ "type": "Feature", "properties": { "osm_id": "node\/262656911", "name": "Ekom", "opening_ho": null, "shop": "supermarket", "wheelchair": null, "operator": null, "website": null, "organic": null, "amenity": null, "brand": null, "ref_vatin": null, "note": null, "alt_name": null, "old_name": null }, "geometry": { "type": "Point", "coordinates": [ 8.898789, 44.4099985 ] } },
{ "type": "Feature", "properties": { "osm_id": "node\/262769137", "name": "Basko", "opening_ho": null, "shop": "supermarket", "wheelchair": null, "operator": null, "website": null, "organic": null, "amenity": null, "brand": null, "ref_vatin": null, "note": null, "alt_name": null, "old_name": null }, "geometry": { "type": "Point", "coordinates": [ 8.9502142, 44.4035131 ] } },
{ "type": "Feature", "properties": { "osm_id": "node\/262769268", "name": "Carrefour Express", "opening_ho": null, "shop": "supermarket", "wheelchair": null, "operator": null, "website": null, "organic": null, "amenity": null, "brand": null, "ref_vatin": null, "note": null, "alt_name": null, "old_name": null }, "geometry": { "type": "Point", "coordinates": [ 8.9292676, 44.4144245 ] } },
{ "type": "Feature", "properties": { "osm_id": "node\/262811333", "name": "Carrefour Express", "opening_ho": null, "shop": "supermarket", "wheelchair": null, "operator": null, "website": null, "organic": null, "amenity": null, "brand": null, "ref_vatin": null, "note": null, "alt_name": null, "old_name": null }, "geometry": { "type": "Point", "coordinates": [ 8.9332865, 44.4055711 ] } },
{ "type": "Feature", "properties": { "osm_id": "node\/262894032", "name": "EuroSpin", "opening_ho": null, "shop": "supermarket", "wheelchair": null, "operator": null, "website": null, "organic": null, "amenity": null, "brand": null, "ref_vatin": null, "note": null, "alt_name": null, "old_name": null }, "geometry": { "type": "Point", "coordinates": [ 14.164034700199876, 42.504409498551688 ] } },
{ "type": "Feature", "properties": { "osm_id": "node\/262962495", "name": "Carrefour Express", "opening_ho": null, "shop": "supermarket", "wheelchair": null, "operator": null, "website": null, "organic": null, "amenity": null, "brand": null, "ref_vatin": null, "note": null, "alt_name": null, "old_name": null }, "geometry": { "type": "Point", "coordinates": [ 8.9315763, 44.4089394 ] } },
{ "type": "Feature", "properties": { "osm_id": "node\/262962583", "name": "Carrefour Express", "opening_ho": null, "shop": "supermarket", "wheelchair": null, "operator": null, "website": null, "organic": null, "amenity": null, "brand": null, "ref_vatin": null, "note": null, "alt_name": null, "old_name": null }, "geometry": { "type": "Point", "coordinates": [ 8.9299109, 44.408655099999983 ] } },
{ "type": "Feature", "properties": { "osm_id": "node\/263543259", "name": "Carrefour Express", "opening_ho": null, "shop": "supermarket", "wheelchair": null, "operator": null, "website": null, "organic": null, "amenity": null, "brand": null, "ref_vatin": null, "note": null, "alt_name": null, "old_name": null }, "geometry": { "type": "Point", "coordinates": [ 8.9576779, 44.4134277 ] } },
{ "type": "Feature", "properties": { "osm_id": "node\/264049634", "name": "In's", "opening_ho": null, "shop": "supermarket", "wheelchair": null, "operator": null, "website": null, "organic": null, "amenity": null, "brand": null, "ref_vatin": null, "note": null, "alt_name": null, "old_name": null }, "geometry": { "type": "Point", "coordinates": [ 8.8935792, 44.409749 ] } },
{ "type": "Feature", "properties": { "osm_id": "node\/264050967", "name": "Asim", "opening_ho": null, "shop": "supermarket", "wheelchair": null, "operator": null, "website": null, "organic": null, "amenity": null, "brand": null, "ref_vatin": null, "note": null, "alt_name": null, "old_name": null }, "geometry": { "type": "Point", "coordinates": [ 8.8861925, 44.4121065 ] } },
{ "type": "Feature", "properties": { "osm_id": "node\/264051416", "name": "Ekom", "opening_ho": null, "shop": "supermarket", "wheelchair": null, "operator": null, "website": null, "organic": null, "amenity": null, "brand": null, "ref_vatin": null, "note": null, "alt_name": null, "old_name": null }, "geometry": { "type": "Point", "coordinates": [ 8.8889906, 44.41125430000001 ] } },
{ "type": "Feature", "properties": { "osm_id": "node\/264195191", "name": "Mediaword", "opening_ho": null, "shop": "supermarket", "wheelchair": null, "operator": null, "website": null, "organic": null, "amenity": null, "brand": null, "ref_vatin": null, "note": null, "alt_name": null, "old_name": null }, "geometry": { "type": "Point", "coordinates": [ 11.698641500019008, 44.361743099967796 ] } },
{ "type": "Feature", "properties": { "osm_id": "node\/264246510", "name": "Carrefour Express", "opening_ho": "Mo-Sa 8:00-20:00; Su 8:30-20:00", "shop": "supermarket", "wheelchair": null, "operator": null, "website": null, "organic": null, "amenity": null, "brand": null, "ref_vatin": null, "note": null, "alt_name": null, "old_name": null }, "geometry": { "type": "Point", "coordinates": [ 8.9506911, 44.4090908 ] } },
{ "type": "Feature", "properties": { "osm_id": "node\/264671751", "name": "Ekom", "opening_ho": null, "shop": "supermarket", "wheelchair": null, "operator": null, "website": null, "organic": null, "amenity": null, "brand": null, "ref_vatin": null, "note": null, "alt_name": null, "old_name": null }, "geometry": { "type": "Point", "coordinates": [ 8.9289955, 44.4078432 ] } },
{ "type": "Feature", "properties": { "osm_id": "node\/264675662", "name": "Oasi", "opening_ho": null, "shop": "supermarket", "wheelchair": "yes", "operator": null, "website": null, "organic": null, "amenity": null, "brand": null, "ref_vatin": null, "note": null, "alt_name": null, "old_name": null }, "geometry": { "type": "Point", "coordinates": [ 14.159131000200722, 42.507512898559654 ] } },
{ "type": "Feature", "properties": { "osm_id": "node\/265656601", "name": "DìperDì", "opening_ho": null, "shop": "supermarket", "wheelchair": null, "operator": null, "website": null, "organic": null, "amenity": null, "brand": null, "ref_vatin": null, "note": null, "alt_name": null, "old_name": null }, "geometry": { "type": "Point", "coordinates": [ 9.2195169, 45.4909891 ] } },
{ "type": "Feature", "properties": { "osm_id": "node\/265738977", "name": "Carrefour express", "opening_ho": null, "shop": "supermarket", "wheelchair": null, "operator": null, "website": null, "organic": null, "amenity": null, "brand": null, "ref_vatin": null, "note": null, "alt_name": null, "old_name": null }, "geometry": { "type": "Point", "coordinates": [ 8.9223822, 44.421359099999989 ] } },
{ "type": "Feature", "properties": { "osm_id": "node\/265741850", "name": "E' il mio mercato", "opening_ho": null, "shop": "supermarket", "wheelchair": null, "operator": "Doro", "website": null, "organic": null, "amenity": null, "brand": null, "ref_vatin": null, "note": null, "alt_name": null, "old_name": null }, "geometry": { "type": "Point", "coordinates": [ 8.9455077, 44.4137203 ] } },
{ "type": "Feature", "properties": { "osm_id": "node\/266022592", "name": "Carrefour express", "opening_ho": null, "shop": "supermarket", "wheelchair": null, "operator": null, "website": null, "organic": null, "amenity": null, "brand": null, "ref_vatin": null, "note": null, "alt_name": null, "old_name": null }, "geometry": { "type": "Point", "coordinates": [ 9.0359289, 44.3843173 ] } },
{ "type": "Feature", "properties": { "osm_id": "node\/266153826", "name": "Dì per Dì", "opening_ho": null, "shop": "supermarket", "wheelchair": null, "operator": null, "website": null, "organic": null, "amenity": null, "brand": null, "ref_vatin": null, "note": null, "alt_name": null, "old_name": null }, "geometry": { "type": "Point", "coordinates": [ 9.1428927, 44.3621304 ] } },
{ "type": "Feature", "properties": { "osm_id": "node\/266159772", "name": "Coop", "opening_ho": null, "shop": "supermarket", "wheelchair": null, "operator": null, "website": null, "organic": null, "amenity": null, "brand": null, "ref_vatin": null, "note": null, "alt_name": null, "old_name": null }, "geometry": { "type": "Point", "coordinates": [ 9.1456639, 44.3628483 ] } },
{ "type": "Feature", "properties": { "osm_id": "node\/266336801", "name": "Carrefour Market", "opening_ho": null, "shop": "supermarket", "wheelchair": null, "operator": null, "website": null, "organic": null, "amenity": null, "brand": null, "ref_vatin": null, "note": null, "alt_name": null, "old_name": null }, "geometry": { "type": "Point", "coordinates": [ 8.9647195, 44.4070117 ] } },
{ "type": "Feature", "properties": { "osm_id": "node\/266350990", "name": "Il Gigante", "opening_ho": null, "shop": "supermarket", "wheelchair": null, "operator": "Standa", "website": null, "organic": null, "amenity": null, "brand": null, "ref_vatin": null, "note": null, "alt_name": null, "old_name": null }, "geometry": { "type": "Point", "coordinates": [ 8.8994113, 45.6066767 ] } },
{ "type": "Feature", "properties": { "osm_id": "node\/266384203", "name": "Punto SMA", "opening_ho": null, "shop": "supermarket", "wheelchair": null, "operator": "Società F. A. snc", "website": null, "organic": null, "amenity": null, "brand": null, "ref_vatin": "IT09456520155", "note": null, "alt_name": null, "old_name": null }, "geometry": { "type": "Point", "coordinates": [ 9.2026755, 45.4512792 ] } },
{ "type": "Feature", "properties": { "osm_id": "node\/266546050", "name": "Conad", "opening_ho": null, "shop": "supermarket", "wheelchair": null, "operator": null, "website": null, "organic": null, "amenity": null, "brand": null, "ref_vatin": null, "note": null, "alt_name": null, "old_name": null }, "geometry": { "type": "Point", "coordinates": [ 10.38172580000067, 42.744767999999453 ] } },
{ "type": "Feature", "properties": { "osm_id": "node\/266798588", "name": "Conad City", "opening_ho": null, "shop": "supermarket", "wheelchair": null, "operator": null, "website": null, "organic": null, "amenity": null, "brand": null, "ref_vatin": null, "note": null, "alt_name": null, "old_name": null }, "geometry": { "type": "Point", "coordinates": [ 9.2808013, 46.1282239 ] } },
{ "type": "Feature", "properties": { "osm_id": "node\/267110443", "name": "Carrefour Express", "opening_ho": null, "shop": "supermarket", "wheelchair": null, "operator": null, "website": null, "organic": null, "amenity": null, "brand": null, "ref_vatin": null, "note": null, "alt_name": null, "old_name": null }, "geometry": { "type": "Point", "coordinates": [ 8.9529877, 44.4031943 ] } },
{ "type": "Feature", "properties": { "osm_id": "node\/267111051", "name": "Issimo", "opening_ho": null, "shop": "supermarket", "wheelchair": null, "operator": null, "website": null, "organic": null, "amenity": null, "brand": null, "ref_vatin": null, "note": null, "alt_name": null, "old_name": null }, "geometry": { "type": "Point", "coordinates": [ 8.9474751, 44.4167168 ] } },
{ "type": "Feature", "properties": { "osm_id": "node\/267221641", "name": "Carrefour Express", "opening_ho": null, "shop": "supermarket", "wheelchair": null, "operator": null, "website": null, "organic": null, "amenity": null, "brand": null, "ref_vatin": null, "note": null, "alt_name": null, "old_name": null }, "geometry": { "type": "Point", "coordinates": [ 8.930246, 44.4121888 ] } },
{ "type": "Feature", "properties": { "osm_id": "node\/267344677", "name": "Carrefour Express", "opening_ho": null, "shop": "supermarket", "wheelchair": null, "operator": null, "website": null, "organic": null, "amenity": null, "brand": null, "ref_vatin": null, "note": null, "alt_name": null, "old_name": null }, "geometry": { "type": "Point", "coordinates": [ 8.9345586, 44.4121158 ] } },
{ "type": "Feature", "properties": { "osm_id": "node\/267560569", "name": "Carrefour express", "opening_ho": null, "shop": "supermarket", "wheelchair": null, "operator": null, "website": null, "organic": null, "amenity": null, "brand": null, "ref_vatin": null, "note": null, "alt_name": null, "old_name": null }, "geometry": { "type": "Point", "coordinates": [ 8.9899578, 44.408427 ] } },
{ "type": "Feature", "properties": { "osm_id": "node\/267672279", "name": null, "opening_ho": null, "shop": "supermarket", "wheelchair": null, "operator": null, "website": null, "organic": null, "amenity": null, "brand": null, "ref_vatin": null, "note": null, "alt_name": null, "old_name": null }, "geometry": { "type": "Point", "coordinates": [ 13.351093800322797, 38.127963899588266 ] } },
{ "type": "Feature", "properties": { "osm_id": "node\/267672822", "name": "COOP", "opening_ho": null, "shop": "supermarket", "wheelchair": null, "operator": null, "website": null, "organic": null, "amenity": null, "brand": null, "ref_vatin": null, "note": null, "alt_name": null, "old_name": null }, "geometry": { "type": "Point", "coordinates": [ 13.355218100324366, 38.123287899586053 ] } },
{ "type": "Feature", "properties": { "osm_id": "node\/267793183", "name": "GS", "opening_ho": null, "shop": "supermarket", "wheelchair": "yes", "operator": null, "website": null, "organic": null, "amenity": null, "brand": null, "ref_vatin": null, "note": null, "alt_name": null, "old_name": null }, "geometry": { "type": "Point", "coordinates": [ 13.353222000323553, 38.127807099587052 ] } },
{ "type": "Feature", "properties": { "osm_id": "node\/268180735", "name": "Carrefour Express", "opening_ho": null, "shop": "supermarket", "wheelchair": null, "operator": null, "website": null, "organic": null, "amenity": null, "brand": null, "ref_vatin": null, "note": null, "alt_name": null, "old_name": null }, "geometry": { "type": "Point", "coordinates": [ 8.9488674, 44.423155 ] } },
{ "type": "Feature", "properties": { "osm_id": "node\/268403462", "name": "Mercato Comunale", "opening_ho": null, "shop": "supermarket", "wheelchair": null, "operator": null, "website": null, "organic": null, "amenity": null, "brand": null, "ref_vatin": null, "note": null, "alt_name": null, "old_name": null }, "geometry": { "type": "Point", "coordinates": [ 9.162871, 45.4311351 ] } },
{ "type": "Feature", "properties": { "osm_id": "node\/268420433", "name": "Franceschina", "opening_ho": null, "shop": "supermarket", "wheelchair": null, "operator": null, "website": null, "organic": null, "amenity": null, "brand": null, "ref_vatin": null, "note": null, "alt_name": null, "old_name": null }, "geometry": { "type": "Point", "coordinates": [ 10.792566600002207, 45.302828399997125 ] } },
{ "type": "Feature", "properties": { "osm_id": "node\/268421805", "name": "Coop", "opening_ho": null, "shop": "supermarket", "wheelchair": null, "operator": "coop", "website": null, "organic": null, "amenity": null, "brand": null, "ref_vatin": null, "note": null, "alt_name": null, "old_name": null }, "geometry": { "type": "Point", "coordinates": [ 11.215569000006125, 46.085431599989541 ] } },
{ "type": "Feature", "properties": { "osm_id": "node\/268673415", "name": "Coop", "opening_ho": null, "shop": "supermarket", "wheelchair": null, "operator": "Coop Liguria", "website": null, "organic": null, "amenity": null, "brand": "Coop Liguria s.r.l", "ref_vatin": null, "note": null, "alt_name": null, "old_name": null }, "geometry": { "type": "Point", "coordinates": [ 8.6426799, 44.3904319 ] } },
{ "type": "Feature", "properties": { "osm_id": "node\/268871531", "name": "Stefan", "opening_ho": null, "shop": "supermarket", "wheelchair": null, "operator": null, "website": null, "organic": null, "amenity": null, "brand": null, "ref_vatin": null, "note": null, "alt_name": null, "old_name": null }, "geometry": { "type": "Point", "coordinates": [ 10.369774300000609, 43.744458599999454 ] } },
{ "type": "Feature", "properties": { "osm_id": "node\/269056028", "name": "COOP", "opening_ho": null, "shop": "supermarket", "wheelchair": null, "operator": null, "website": null, "organic": null, "amenity": null, "brand": null, "ref_vatin": null, "note": null, "alt_name": null, "old_name": null }, "geometry": { "type": "Point", "coordinates": [ 13.771205100020525, 45.666966598981652 ] } },
{ "type": "Feature", "properties": { "osm_id": "node\/269056029", "name": "PAM", "opening_ho": null, "shop": "supermarket", "wheelchair": "yes", "operator": null, "website": null, "organic": null, "amenity": null, "brand": null, "ref_vatin": null, "note": null, "alt_name": null, "old_name": null }, "geometry": { "type": "Point", "coordinates": [ 13.770087100020973, 45.665142198983133 ] } },
{ "type": "Feature", "properties": { "osm_id": "node\/269348457", "name": null, "opening_ho": null, "shop": "supermarket", "wheelchair": null, "operator": null, "website": null, "organic": null, "amenity": null, "brand": null, "ref_vatin": null, "note": null, "alt_name": null, "old_name": null }, "geometry": { "type": "Point", "coordinates": [ 11.218872100006143, 46.143618299989434 ] } },
{ "type": "Feature", "properties": { "osm_id": "node\/269352352", "name": "Carrefour Express", "opening_ho": null, "shop": "supermarket", "wheelchair": null, "operator": null, "website": null, "organic": null, "amenity": null, "brand": null, "ref_vatin": null, "note": null, "alt_name": null, "old_name": null }, "geometry": { "type": "Point", "coordinates": [ 8.9566347, 44.4180704 ] } },
{ "type": "Feature", "properties": { "osm_id": "node\/269366869", "name": "Basko", "opening_ho": null, "shop": "supermarket", "wheelchair": null, "operator": null, "website": null, "organic": null, "amenity": null, "brand": null, "ref_vatin": null, "note": null, "alt_name": null, "old_name": null }, "geometry": { "type": "Point", "coordinates": [ 8.9550052, 44.4168391 ] } },
{ "type": "Feature", "properties": { "osm_id": "node\/269528538", "name": "Coop", "opening_ho": null, "shop": "supermarket", "wheelchair": null, "operator": null, "website": null, "organic": null, "amenity": null, "brand": null, "ref_vatin": null, "note": null, "alt_name": null, "old_name": null }, "geometry": { "type": "Point", "coordinates": [ 8.984467, 44.3929492 ] } },
{ "type": "Feature", "properties": { "osm_id": "node\/269604393", "name": "Conad I Cigni", "opening_ho": null, "shop": "supermarket", "wheelchair": null, "operator": "Conad", "website": null, "organic": null, "amenity": null, "brand": null, "ref_vatin": null, "note": null, "alt_name": null, "old_name": null }, "geometry": { "type": "Point", "coordinates": [ 12.290366500049027, 44.439191099894053 ] } },
{ "type": "Feature", "properties": { "osm_id": "node\/269706506", "name": "Basko", "opening_ho": null, "shop": "supermarket", "wheelchair": null, "operator": null, "website": null, "organic": null, "amenity": null, "brand": null, "ref_vatin": null, "note": null, "alt_name": null, "old_name": null }, "geometry": { "type": "Point", "coordinates": [ 8.8847255, 44.413979 ] } },
{ "type": "Feature", "properties": { "osm_id": "node\/269774810", "name": "Coop", "opening_ho": null, "shop": "supermarket", "wheelchair": null, "operator": "Coop Firenze", "website": null, "organic": null, "amenity": null, "brand": null, "ref_vatin": null, "note": null, "alt_name": null, "old_name": null }, "geometry": { "type": "Point", "coordinates": [ 10.277405800000428, 43.666076899999638 ] } },
{ "type": "Feature", "properties": { "osm_id": "node\/270112602", "name": "COOP Nord Est", "opening_ho": null, "shop": "supermarket", "wheelchair": null, "operator": null, "website": null, "organic": null, "amenity": null, "brand": null, "ref_vatin": null, "note": null, "alt_name": null, "old_name": null }, "geometry": { "type": "Point", "coordinates": [ 13.770063400021106, 45.663317298983223 ] } },
{ "type": "Feature", "properties": { "osm_id": "node\/270387662", "name": "Coop", "opening_ho": null, "shop": "supermarket", "wheelchair": null, "operator": null, "website": null, "organic": null, "amenity": null, "brand": null, "ref_vatin": null, "note": null, "alt_name": null, "old_name": null }, "geometry": { "type": "Point", "coordinates": [ 11.21632500000727, 43.774091299990324 ] } },
{ "type": "Feature", "properties": { "osm_id": "node\/270689766", "name": "Di Meglio", "opening_ho": null, "shop": "supermarket", "wheelchair": "no", "operator": null, "website": null, "organic": null, "amenity": null, "brand": null, "ref_vatin": null, "note": null, "alt_name": null, "old_name": null }, "geometry": { "type": "Point", "coordinates": [ 9.0002573, 44.3993236 ] } },
{ "type": "Feature", "properties": { "osm_id": "node\/270693237", "name": "Carrefour express", "opening_ho": null, "shop": "supermarket", "wheelchair": "no", "operator": null, "website": null, "organic": null, "amenity": null, "brand": null, "ref_vatin": null, "note": null, "alt_name": null, "old_name": null }, "geometry": { "type": "Point", "coordinates": [ 9.0084092, 44.3895323 ] } },
{ "type": "Feature", "properties": { "osm_id": "node\/270893270", "name": "Coop", "opening_ho": null, "shop": "supermarket", "wheelchair": null, "operator": null, "website": null, "organic": null, "amenity": null, "brand": null, "ref_vatin": null, "note": null, "alt_name": null, "old_name": null }, "geometry": { "type": "Point", "coordinates": [ 12.028353000033919, 44.225992199936051 ] } },
{ "type": "Feature", "properties": { "osm_id": "node\/271027018", "name": null, "opening_ho": null, "shop": "supermarket", "wheelchair": null, "operator": null, "website": null, "organic": null, "amenity": null, "brand": null, "ref_vatin": null, "note": null, "alt_name": null, "old_name": null }, "geometry": { "type": "Point", "coordinates": [ 13.806170100012938, 45.623698698937751 ] } },
{ "type": "Feature", "properties": { "osm_id": "node\/271149498", "name": "Lidl", "opening_ho": null, "shop": "supermarket", "wheelchair": "yes", "operator": null, "website": null, "organic": null, "amenity": null, "brand": null, "ref_vatin": null, "note": null, "alt_name": null, "old_name": null }, "geometry": { "type": "Point", "coordinates": [ 8.8777942, 44.4177117 ] } },
{ "type": "Feature", "properties": { "osm_id": "node\/271149500", "name": "IN's", "opening_ho": null, "shop": "supermarket", "wheelchair": null, "operator": null, "website": null, "organic": null, "amenity": null, "brand": null, "ref_vatin": null, "note": null, "alt_name": null, "old_name": null }, "geometry": { "type": "Point", "coordinates": [ 8.876702, 44.4167204 ] } },
{ "type": "Feature", "properties": { "osm_id": "node\/271161371", "name": "Penny market", "opening_ho": null, "shop": "supermarket", "wheelchair": null, "operator": null, "website": null, "organic": null, "amenity": null, "brand": null, "ref_vatin": null, "note": null, "alt_name": null, "old_name": null }, "geometry": { "type": "Point", "coordinates": [ 11.541549500014916, 43.551633899978192 ] } },
{ "type": "Feature", "properties": { "osm_id": "node\/271161373", "name": "Lidl", "opening_ho": null, "shop": "supermarket", "wheelchair": null, "operator": null, "website": null, "organic": null, "amenity": null, "brand": null, "ref_vatin": null, "note": null, "alt_name": null, "old_name": null }, "geometry": { "type": "Point", "coordinates": [ 11.542847700014955, 43.55146869997813 ] } },
{ "type": "Feature", "properties": { "osm_id": "node\/271348532", "name": "Lidl", "opening_ho": null, "shop": "supermarket", "wheelchair": null, "operator": null, "website": null, "organic": null, "amenity": null, "brand": null, "ref_vatin": null, "note": null, "alt_name": null, "old_name": null }, "geometry": { "type": "Point", "coordinates": [ 14.17214640019848, 42.498887398538457 ] } },
{ "type": "Feature", "properties": { "osm_id": "node\/271354253", "name": "Carrefour express", "opening_ho": null, "shop": "supermarket", "wheelchair": "no", "operator": null, "website": null, "organic": null, "amenity": null, "brand": null, "ref_vatin": null, "note": null, "alt_name": null, "old_name": null }, "geometry": { "type": "Point", "coordinates": [ 9.0063146, 44.39119 ] } },
{ "type": "Feature", "properties": { "osm_id": "node\/271361571", "name": "Carrefour Express", "opening_ho": null, "shop": "supermarket", "wheelchair": "yes", "operator": null, "website": null, "organic": null, "amenity": null, "brand": null, "ref_vatin": null, "note": null, "alt_name": null, "old_name": null }, "geometry": { "type": "Point", "coordinates": [ 8.9582911, 44.4004573 ] } },
{ "type": "Feature", "properties": { "osm_id": "node\/271420892", "name": "Coop", "opening_ho": null, "shop": "supermarket", "wheelchair": null, "operator": null, "website": null, "organic": null, "amenity": null, "brand": null, "ref_vatin": null, "note": null, "alt_name": null, "old_name": null }, "geometry": { "type": "Point", "coordinates": [ 11.327891600009639, 43.330601099987234 ] } },
{ "type": "Feature", "properties": { "osm_id": "node\/271420894", "name": "Porta Siena", "opening_ho": null, "shop": "supermarket", "wheelchair": null, "operator": null, "website": null, "organic": null, "amenity": null, "brand": null, "ref_vatin": null, "note": null, "alt_name": null, "old_name": null }, "geometry": { "type": "Point", "coordinates": [ 11.322909400009532, 43.330882199987393 ] } },
{ "type": "Feature", "properties": { "osm_id": "node\/272337350", "name": "COOP", "opening_ho": null, "shop": "supermarket", "wheelchair": null, "operator": null, "website": null, "organic": null, "amenity": null, "brand": null, "ref_vatin": null, "note": null, "alt_name": null, "old_name": null }, "geometry": { "type": "Point", "coordinates": [ 11.651228900014528, 46.369118499969105 ] } },
{ "type": "Feature", "properties": { "osm_id": "node\/272513891", "name": "Despar", "opening_ho": null, "shop": "supermarket", "wheelchair": null, "operator": null, "website": null, "organic": null, "amenity": null, "brand": null, "ref_vatin": null, "note": null, "alt_name": null, "old_name": null }, "geometry": { "type": "Point", "coordinates": [ 11.310868800009244, 43.393913899987751 ] } },
{ "type": "Feature", "properties": { "osm_id": "node\/272868630", "name": "punto SMA", "opening_ho": null, "shop": "supermarket", "wheelchair": null, "operator": null, "website": null, "organic": null, "amenity": null, "brand": null, "ref_vatin": null, "note": null, "alt_name": null, "old_name": null }, "geometry": { "type": "Point", "coordinates": [ 9.1552648, 45.464068 ] } },
{ "type": "Feature", "properties": { "osm_id": "node\/273109566", "name": "Punto SMA", "opening_ho": null, "shop": "supermarket", "wheelchair": null, "operator": null, "website": null, "organic": null, "amenity": null, "brand": null, "ref_vatin": null, "note": null, "alt_name": null, "old_name": null }, "geometry": { "type": "Point", "coordinates": [ 8.8746942, 44.4376686 ] } },
{ "type": "Feature", "properties": { "osm_id": "node\/273350466", "name": "Coop", "opening_ho": null, "shop": "supermarket", "wheelchair": null, "operator": null, "website": null, "organic": null, "amenity": null, "brand": null, "ref_vatin": null, "note": null, "alt_name": null, "old_name": null }, "geometry": { "type": "Point", "coordinates": [ 8.9094193, 44.4109986 ] } },
{ "type": "Feature", "properties": { "osm_id": "node\/274826589", "name": "IperLando", "opening_ho": "Mo-Sa 08:30-20:00; Su 08:00-20:00", "shop": "supermarket", "wheelchair": null, "operator": null, "website": null, "organic": null, "amenity": null, "brand": null, "ref_vatin": null, "note": null, "alt_name": null, "old_name": null }, "geometry": { "type": "Point", "coordinates": [ 12.250749900043164, 45.083798599899247 ] } },
{ "type": "Feature", "properties": { "osm_id": "node\/274833069", "name": null, "opening_ho": null, "shop": "supermarket", "wheelchair": null, "operator": null, "website": null, "organic": null, "amenity": null, "brand": null, "ref_vatin": null, "note": null, "alt_name": null, "old_name": null }, "geometry": { "type": "Point", "coordinates": [ 12.171113900037142, 45.422210899912201 ] } },
{ "type": "Feature", "properties": { "osm_id": "node\/275167775", "name": "Dimeglio", "opening_ho": null, "shop": "supermarket", "wheelchair": null, "operator": null, "website": null, "organic": null, "amenity": null, "brand": null, "ref_vatin": null, "note": null, "alt_name": null, "old_name": null }, "geometry": { "type": "Point", "coordinates": [ 16.406081990031414, 41.274168188621331 ] } },
{ "type": "Feature", "properties": { "osm_id": "node\/275928966", "name": "Ekom", "opening_ho": null, "shop": "supermarket", "wheelchair": null, "operator": null, "website": null, "organic": null, "amenity": null, "brand": null, "ref_vatin": null, "note": null, "alt_name": null, "old_name": null }, "geometry": { "type": "Point", "coordinates": [ 8.7600507, 44.4296172 ] } },
{ "type": "Feature", "properties": { "osm_id": "node\/275928969", "name": "Dico", "opening_ho": null, "shop": "supermarket", "wheelchair": null, "operator": null, "website": null, "organic": null, "amenity": null, "brand": null, "ref_vatin": null, "note": null, "alt_name": null, "old_name": null }, "geometry": { "type": "Point", "coordinates": [ 8.7604325, 44.4296519 ] } },
{ "type": "Feature", "properties": { "osm_id": "node\/275928970", "name": "Supergulliver", "opening_ho": null, "shop": "supermarket", "wheelchair": null, "operator": null, "website": null, "organic": null, "amenity": null, "brand": null, "ref_vatin": null, "note": null, "alt_name": null, "old_name": null }, "geometry": { "type": "Point", "coordinates": [ 8.7610763, 44.4296665 ] } },
{ "type": "Feature", "properties": { "osm_id": "node\/275995565", "name": null, "opening_ho": null, "shop": "supermarket", "wheelchair": null, "operator": null, "website": null, "organic": null, "amenity": null, "brand": null, "ref_vatin": null, "note": null, "alt_name": null, "old_name": null }, "geometry": { "type": "Point", "coordinates": [ 11.105604200004764, 46.016901099992296 ] } },
{ "type": "Feature", "properties": { "osm_id": "node\/276213453", "name": "Alì", "opening_ho": null, "shop": "supermarket", "wheelchair": null, "operator": null, "website": null, "organic": null, "amenity": null, "brand": null, "ref_vatin": null, "note": null, "alt_name": null, "old_name": null }, "geometry": { "type": "Point", "coordinates": [ 12.252838700040867, 45.560683899897292 ] } },
{ "type": "Feature", "properties": { "osm_id": "node\/276248574", "name": "Famiglia Cooperativa", "opening_ho": null, "shop": "supermarket", "wheelchair": null, "operator": null, "website": null, "organic": null, "amenity": null, "brand": null, "ref_vatin": null, "note": null, "alt_name": null, "old_name": null }, "geometry": { "type": "Point", "coordinates": [ 11.243969200006507, 46.132147499988704 ] } },
{ "type": "Feature", "properties": { "osm_id": "node\/276248577", "name": "Despar", "opening_ho": null, "shop": "supermarket", "wheelchair": null, "operator": null, "website": null, "organic": null, "amenity": null, "brand": null, "ref_vatin": null, "note": null, "alt_name": null, "old_name": null }, "geometry": { "type": "Point", "coordinates": [ 11.249124300006581, 46.134317399988547 ] } },
{ "type": "Feature", "properties": { "osm_id": "node\/276248579", "name": null, "opening_ho": null, "shop": "supermarket", "wheelchair": null, "operator": null, "website": null, "organic": null, "amenity": null, "brand": null, "ref_vatin": null, "note": null, "alt_name": null, "old_name": null }, "geometry": { "type": "Point", "coordinates": [ 11.24696270000655, 46.131669199988615 ] } },
{ "type": "Feature", "properties": { "osm_id": "node\/276501756", "name": "DeSpar", "opening_ho": null, "shop": "supermarket", "wheelchair": null, "operator": null, "website": null, "organic": null, "amenity": null, "brand": null, "ref_vatin": null, "note": null, "alt_name": null, "old_name": null }, "geometry": { "type": "Point", "coordinates": [ 10.824576700002336, 45.789117699996758 ] } },
{ "type": "Feature", "properties": { "osm_id": "node\/276510873", "name": "Spar", "opening_ho": null, "shop": "supermarket", "wheelchair": null, "operator": null, "website": null, "organic": null, "amenity": null, "brand": null, "ref_vatin": null, "note": null, "alt_name": null, "old_name": null }, "geometry": { "type": "Point", "coordinates": [ 10.810533500002249, 45.765614499996907 ] } },
{ "type": "Feature", "properties": { "osm_id": "node\/277577258", "name": "Billa", "opening_ho": null, "shop": "supermarket", "wheelchair": null, "operator": null, "website": null, "organic": null, "amenity": null, "brand": null, "ref_vatin": null, "note": null, "alt_name": null, "old_name": null }, "geometry": { "type": "Point", "coordinates": [ 13.762130300024888, 45.641028098993949 ] } },
{ "type": "Feature", "properties": { "osm_id": "node\/278201331", "name": "PennyMarket", "opening_ho": null, "shop": "supermarket", "wheelchair": null, "operator": null, "website": null, "organic": null, "amenity": null, "brand": null, "ref_vatin": null, "note": null, "alt_name": null, "old_name": null }, "geometry": { "type": "Point", "coordinates": [ 9.1653078, 45.5004259 ] } },
{ "type": "Feature", "properties": { "osm_id": "node\/279123923", "name": "Punto Sma", "opening_ho": null, "shop": "supermarket", "wheelchair": null, "operator": null, "website": null, "organic": null, "amenity": null, "brand": null, "ref_vatin": null, "note": null, "alt_name": null, "old_name": null }, "geometry": { "type": "Point", "coordinates": [ 9.1533532, 45.4416426 ] } },
{ "type": "Feature", "properties": { "osm_id": "node\/279155656", "name": "Conad", "opening_ho": null, "shop": "supermarket", "wheelchair": null, "operator": "Conad", "website": null, "organic": null, "amenity": null, "brand": null, "ref_vatin": null, "note": null, "alt_name": null, "old_name": null }, "geometry": { "type": "Point", "coordinates": [ 8.591179, 45.7820884 ] } },
{ "type": "Feature", "properties": { "osm_id": "node\/279256611", "name": "Carrefour", "opening_ho": null, "shop": "supermarket", "wheelchair": null, "operator": null, "website": null, "organic": null, "amenity": null, "brand": null, "ref_vatin": null, "note": null, "alt_name": null, "old_name": null }, "geometry": { "type": "Point", "coordinates": [ 8.279101799999978, 44.147785899999981 ] } },
{ "type": "Feature", "properties": { "osm_id": "node\/279256614", "name": "Eurospin", "opening_ho": null, "shop": "supermarket", "wheelchair": null, "operator": null, "website": null, "organic": null, "amenity": null, "brand": null, "ref_vatin": null, "note": null, "alt_name": null, "old_name": null }, "geometry": { "type": "Point", "coordinates": [ 8.278300799999979, 44.146599799999976 ] } },
{ "type": "Feature", "properties": { "osm_id": "node\/279714574", "name": "Despar", "opening_ho": null, "shop": "supermarket", "wheelchair": null, "operator": null, "website": null, "organic": null, "amenity": null, "brand": null, "ref_vatin": null, "note": null, "alt_name": null, "old_name": null }, "geometry": { "type": "Point", "coordinates": [ 12.168135200031301, 46.73753169990934 ] } },
{ "type": "Feature", "properties": { "osm_id": "node\/279716568", "name": "Gol Market", "opening_ho": null, "shop": "supermarket", "wheelchair": null, "operator": null, "website": null, "organic": null, "amenity": null, "brand": null, "ref_vatin": null, "note": null, "alt_name": null, "old_name": null }, "geometry": { "type": "Point", "coordinates": [ 12.168749800031325, 46.738089699909231 ] } },
{ "type": "Feature", "properties": { "osm_id": "node\/280739165", "name": "Coop Famiglia", "opening_ho": null, "shop": "supermarket", "wheelchair": null, "operator": null, "website": null, "organic": null, "amenity": null, "brand": null, "ref_vatin": null, "note": null, "alt_name": null, "old_name": null }, "geometry": { "type": "Point", "coordinates": [ 10.910320500002827, 46.350863599995655 ] } },
{ "type": "Feature", "properties": { "osm_id": "node\/281007630", "name": "DeSpar", "opening_ho": null, "shop": "supermarket", "wheelchair": null, "operator": null, "website": null, "organic": null, "amenity": null, "brand": null, "ref_vatin": null, "note": null, "alt_name": null, "old_name": null }, "geometry": { "type": "Point", "coordinates": [ 10.801641600002108, 46.315913799996956 ] } },
{ "type": "Feature", "properties": { "osm_id": "node\/281339878", "name": "Conad Boschetto", "opening_ho": null, "shop": "supermarket", "wheelchair": null, "operator": "Conad", "website": null, "organic": null, "amenity": null, "brand": null, "ref_vatin": null, "note": null, "alt_name": null, "old_name": null }, "geometry": { "type": "Point", "coordinates": [ 12.631257700079477, 43.998759499811911 ] } },
{ "type": "Feature", "properties": { "osm_id": "node\/281480633", "name": "Penny", "opening_ho": null, "shop": "supermarket", "wheelchair": null, "operator": null, "website": null, "organic": null, "amenity": null, "brand": null, "ref_vatin": null, "note": null, "alt_name": null, "old_name": null }, "geometry": { "type": "Point", "coordinates": [ 10.53135090000097, 45.538191399998873 ] } },
{ "type": "Feature", "properties": { "osm_id": "node\/281487646", "name": "Famiglia Cooperativa", "opening_ho": null, "shop": "supermarket", "wheelchair": null, "operator": null, "website": null, "organic": null, "amenity": null, "brand": null, "ref_vatin": null, "note": null, "alt_name": null, "old_name": null }, "geometry": { "type": "Point", "coordinates": [ 10.795742800002071, 46.316583399997 ] } },
{ "type": "Feature", "properties": { "osm_id": "node\/281582146", "name": "Punto SMA", "opening_ho": null, "shop": "supermarket", "wheelchair": null, "operator": null, "website": null, "organic": null, "amenity": null, "brand": null, "ref_vatin": null, "note": null, "alt_name": null, "old_name": null }, "geometry": { "type": "Point", "coordinates": [ 9.1549911, 45.4682535 ] } },
{ "type": "Feature", "properties": { "osm_id": "node\/281592905", "name": "Pam", "opening_ho": null, "shop": "supermarket", "wheelchair": null, "operator": null, "website": null, "organic": null, "amenity": null, "brand": null, "ref_vatin": null, "note": null, "alt_name": null, "old_name": null }, "geometry": { "type": "Point", "coordinates": [ 9.1323827, 45.463654 ] } },
{ "type": "Feature", "properties": { "osm_id": "node\/281727033", "name": "Carrefour Market", "opening_ho": null, "shop": "supermarket", "wheelchair": null, "operator": null, "website": null, "organic": null, "amenity": null, "brand": null, "ref_vatin": null, "note": null, "alt_name": null, "old_name": null }, "geometry": { "type": "Point", "coordinates": [ 9.185228, 45.4954632 ] } },
{ "type": "Feature", "properties": { "osm_id": "node\/282181279", "name": "Punto SMA", "opening_ho": null, "shop": "supermarket", "wheelchair": null, "operator": null, "website": null, "organic": null, "amenity": null, "brand": null, "ref_vatin": null, "note": null, "alt_name": null, "old_name": null }, "geometry": { "type": "Point", "coordinates": [ 9.212546, 45.4675023 ] } },
{ "type": "Feature", "properties": { "osm_id": "node\/282181459", "name": "Carrefour Market", "opening_ho": "24\/7", "shop": "supermarket", "wheelchair": null, "operator": null, "website": null, "organic": null, "amenity": null, "brand": null, "ref_vatin": "IT03286870286", "note": null, "alt_name": null, "old_name": null }, "geometry": { "type": "Point", "coordinates": [ 9.2224194, 45.4682474 ] } },
{ "type": "Feature", "properties": { "osm_id": "node\/282181931", "name": "Punto Simply", "opening_ho": null, "shop": "supermarket", "wheelchair": "yes", "operator": null, "website": null, "organic": null, "amenity": null, "brand": null, "ref_vatin": null, "note": null, "alt_name": null, "old_name": null }, "geometry": { "type": "Point", "coordinates": [ 9.2184026, 45.4741594 ] } },
{ "type": "Feature", "properties": { "osm_id": "node\/282338811", "name": "Esselunga", "opening_ho": null, "shop": "supermarket", "wheelchair": null, "operator": null, "website": null, "organic": null, "amenity": null, "brand": null, "ref_vatin": null, "note": null, "alt_name": null, "old_name": null }, "geometry": { "type": "Point", "coordinates": [ 9.1491136, 45.189949 ] } },
{ "type": "Feature", "properties": { "osm_id": "node\/282644096", "name": null, "opening_ho": null, "shop": "supermarket", "wheelchair": null, "operator": null, "website": null, "organic": null, "amenity": null, "brand": null, "ref_vatin": null, "note": null, "alt_name": null, "old_name": null }, "geometry": { "type": "Point", "coordinates": [ 13.001816700082347, 45.630814699644169 ] } },
{ "type": "Feature", "properties": { "osm_id": "node\/283352617", "name": null, "opening_ho": null, "shop": "supermarket", "wheelchair": null, "operator": null, "website": null, "organic": null, "amenity": null, "brand": null, "ref_vatin": null, "note": null, "alt_name": null, "old_name": null }, "geometry": { "type": "Point", "coordinates": [ 12.016498000025276, 46.767978899932366 ] } },
{ "type": "Feature", "properties": { "osm_id": "node\/283397297", "name": "Corimbo", "opening_ho": null, "shop": "supermarket", "wheelchair": null, "operator": null, "website": null, "organic": null, "amenity": null, "brand": null, "ref_vatin": null, "note": null, "alt_name": null, "old_name": null }, "geometry": { "type": "Point", "coordinates": [ 13.0122283000827, 45.632961399638567 ] } },
{ "type": "Feature", "properties": { "osm_id": "node\/283397387", "name": "Quali Market", "opening_ho": null, "shop": "supermarket", "wheelchair": null, "operator": null, "website": null, "organic": null, "amenity": null, "brand": null, "ref_vatin": null, "note": null, "alt_name": null, "old_name": null }, "geometry": { "type": "Point", "coordinates": [ 13.0041206000824, 45.632616599642915 ] } },
{ "type": "Feature", "properties": { "osm_id": "node\/283668969", "name": null, "opening_ho": null, "shop": "supermarket", "wheelchair": null, "operator": null, "website": null, "organic": null, "amenity": null, "brand": null, "ref_vatin": null, "note": null, "alt_name": null, "old_name": null }, "geometry": { "type": "Point", "coordinates": [ 17.000278876461316, 41.086676882483282 ] } },
{ "type": "Feature", "properties": { "osm_id": "node\/283669080", "name": null, "opening_ho": null, "shop": "supermarket", "wheelchair": null, "operator": null, "website": null, "organic": null, "amenity": null, "brand": null, "ref_vatin": null, "note": null, "alt_name": null, "old_name": null }, "geometry": { "type": "Point", "coordinates": [ 16.996270576591847, 41.086838682532758 ] } },
{ "type": "Feature", "properties": { "osm_id": "node\/283691847", "name": "Iper", "opening_ho": null, "shop": "supermarket", "wheelchair": "yes", "operator": null, "website": null, "organic": null, "amenity": null, "brand": null, "ref_vatin": null, "note": null, "alt_name": null, "old_name": null }, "geometry": { "type": "Point", "coordinates": [ 9.694822500000019, 45.663727399999985 ] } },
{ "type": "Feature", "properties": { "osm_id": "node\/285293270", "name": "Quali Market", "opening_ho": null, "shop": "supermarket", "wheelchair": null, "operator": null, "website": null, "organic": null, "amenity": null, "brand": null, "ref_vatin": null, "note": null, "alt_name": null, "old_name": null }, "geometry": { "type": "Point", "coordinates": [ 12.996797500082133, 45.631840999646812 ] } },
{ "type": "Feature", "properties": { "osm_id": "node\/285895878", "name": "Lidl", "opening_ho": null, "shop": "supermarket", "wheelchair": null, "operator": null, "website": null, "organic": null, "amenity": null, "brand": null, "ref_vatin": null, "note": null, "alt_name": null, "old_name": null }, "geometry": { "type": "Point", "coordinates": [ 10.742167100001881, 45.503087999997561 ] } },
{ "type": "Feature", "properties": { "osm_id": "node\/286204701", "name": "My Lodi", "opening_ho": null, "shop": "supermarket", "wheelchair": null, "operator": null, "website": null, "organic": null, "amenity": null, "brand": null, "ref_vatin": null, "note": null, "alt_name": null, "old_name": null }, "geometry": { "type": "Point", "coordinates": [ 9.4928738, 45.3012523 ] } },
{ "type": "Feature", "properties": { "osm_id": "node\/287353655", "name": "Centro Commerciale I Gelsi", "opening_ho": null, "shop": "supermarket", "wheelchair": null, "operator": null, "website": null, "organic": null, "amenity": null, "brand": null, "ref_vatin": null, "note": null, "alt_name": null, "old_name": null }, "geometry": { "type": "Point", "coordinates": [ 11.75501050002304, 43.216894499965136 ] } },
{ "type": "Feature", "properties": { "osm_id": "node\/287993885", "name": "I Marsi", "opening_ho": null, "shop": "supermarket", "wheelchair": null, "operator": null, "website": null, "organic": null, "amenity": null, "brand": null, "ref_vatin": null, "note": null, "alt_name": null, "old_name": null }, "geometry": { "type": "Point", "coordinates": [ 13.407528600217596, 42.045947599448368 ] } },
{ "type": "Feature", "properties": { "osm_id": "node\/288389994", "name": "Despar", "opening_ho": "Mo-Sa 07:45-19:00", "shop": "supermarket", "wheelchair": null, "operator": null, "website": null, "organic": null, "amenity": null, "brand": null, "ref_vatin": null, "note": null, "alt_name": null, "old_name": null }, "geometry": { "type": "Point", "coordinates": [ 12.131885200029901, 46.719792199915418 ] } },
{ "type": "Feature", "properties": { "osm_id": "node\/288911508", "name": "Famiglia Cooperativa di Povo", "opening_ho": null, "shop": "supermarket", "wheelchair": "limited", "operator": null, "website": null, "organic": null, "amenity": null, "brand": null, "ref_vatin": null, "note": null, "alt_name": null, "old_name": null }, "geometry": { "type": "Point", "coordinates": [ 11.154466600005327, 46.066205899991168 ] } },
{ "type": "Feature", "properties": { "osm_id": "node\/289485917", "name": null, "opening_ho": null, "shop": "supermarket", "wheelchair": null, "operator": null, "website": null, "organic": null, "amenity": null, "brand": null, "ref_vatin": null, "note": null, "alt_name": null, "old_name": null }, "geometry": { "type": "Point", "coordinates": [ 12.140425700030997, 46.536996299914428 ] } },
{ "type": "Feature", "properties": { "osm_id": "node\/290040241", "name": "Conad", "opening_ho": null, "shop": "supermarket", "wheelchair": null, "operator": null, "website": null, "organic": null, "amenity": null, "brand": null, "ref_vatin": null, "note": null, "alt_name": null, "old_name": null }, "geometry": { "type": "Point", "coordinates": [ 11.965428300027375, 45.389432899941319 ] } },
{ "type": "Feature", "properties": { "osm_id": "node\/290070647", "name": "Carrefour Market", "opening_ho": null, "shop": "supermarket", "wheelchair": null, "operator": null, "website": null, "organic": null, "amenity": null, "brand": null, "ref_vatin": null, "note": null, "alt_name": null, "old_name": null }, "geometry": { "type": "Point", "coordinates": [ 12.34135850006761, 41.777147199896135 ] } },
{ "type": "Feature", "properties": { "osm_id": "node\/292021548", "name": "Famiglia Cooperativa", "opening_ho": "Mo-Fr 08:00-19:00; Sa 08:00-13:00", "shop": "supermarket", "wheelchair": null, "operator": null, "website": null, "organic": null, "amenity": null, "brand": null, "ref_vatin": null, "note": null, "alt_name": null, "old_name": null }, "geometry": { "type": "Point", "coordinates": [ 11.141931300005167, 46.076832499991468 ] } },
{ "type": "Feature", "properties": { "osm_id": "node\/292808571", "name": "Bennet", "opening_ho": "09:00-20:30", "shop": "supermarket", "wheelchair": null, "operator": null, "website": null, "organic": null, "amenity": null, "brand": "Bennet", "ref_vatin": null, "note": null, "alt_name": null, "old_name": null }, "geometry": { "type": "Point", "coordinates": [ 9.1240855, 45.1525879 ] } },
{ "type": "Feature", "properties": { "osm_id": "node\/292846192", "name": "NaturaSI'", "opening_ho": null, "shop": "supermarket", "wheelchair": null, "operator": null, "website": null, "organic": null, "amenity": null, "brand": null, "ref_vatin": null, "note": null, "alt_name": null, "old_name": null }, "geometry": { "type": "Point", "coordinates": [ 9.1285962, 45.467009 ] } },
{ "type": "Feature", "properties": { "osm_id": "node\/292853136", "name": "Coop", "opening_ho": null, "shop": "supermarket", "wheelchair": "yes", "operator": "Coop", "website": null, "organic": null, "amenity": null, "brand": null, "ref_vatin": null, "note": null, "alt_name": null, "old_name": null }, "geometry": { "type": "Point", "coordinates": [ 10.765590200002354, 42.927964599997601 ] } },
{ "type": "Feature", "properties": { "osm_id": "node\/292997502", "name": null, "opening_ho": null, "shop": "supermarket", "wheelchair": null, "operator": null, "website": null, "organic": null, "amenity": null, "brand": null, "ref_vatin": null, "note": null, "alt_name": null, "old_name": null }, "geometry": { "type": "Point", "coordinates": [ 10.950476200003987, 42.747392599995685 ] } },
{ "type": "Feature", "properties": { "osm_id": "node\/293101116", "name": "Panificio Alimentari Nobis", "opening_ho": null, "shop": "supermarket", "wheelchair": null, "operator": null, "website": null, "organic": null, "amenity": null, "brand": null, "ref_vatin": null, "note": null, "alt_name": null, "old_name": null }, "geometry": { "type": "Point", "coordinates": [ 10.775000800002104, 45.270356799997302 ] } },
{ "type": "Feature", "properties": { "osm_id": "node\/293576450", "name": "E.Leclerc", "opening_ho": null, "shop": "supermarket", "wheelchair": null, "operator": null, "website": null, "organic": null, "amenity": null, "brand": null, "ref_vatin": null, "note": null, "alt_name": null, "old_name": null }, "geometry": { "type": "Point", "coordinates": [ 15.938295995234546, 41.644573892058084 ] } },
{ "type": "Feature", "properties": { "osm_id": "node\/293855168", "name": null, "opening_ho": null, "shop": "supermarket", "wheelchair": null, "operator": "Conad", "website": null, "organic": null, "amenity": null, "brand": null, "ref_vatin": null, "note": null, "alt_name": null, "old_name": null }, "geometry": { "type": "Point", "coordinates": [ 16.490681588646826, 41.24417188787119 ] } },
{ "type": "Feature", "properties": { "osm_id": "node\/293868274", "name": "Conad City", "opening_ho": null, "shop": "supermarket", "wheelchair": null, "operator": null, "website": null, "organic": null, "amenity": null, "brand": null, "ref_vatin": null, "note": null, "alt_name": null, "old_name": null }, "geometry": { "type": "Point", "coordinates": [ 11.238801700006471, 46.061110499988878 ] } },
{ "type": "Feature", "properties": { "osm_id": "node\/294201230", "name": null, "opening_ho": null, "shop": "supermarket", "wheelchair": "limited", "operator": null, "website": null, "organic": null, "amenity": null, "brand": null, "ref_vatin": null, "note": null, "alt_name": null, "old_name": null }, "geometry": { "type": "Point", "coordinates": [ 15.893521396035284, 41.258682792495939 ] } },
{ "type": "Feature", "properties": { "osm_id": "node\/294201350", "name": null, "opening_ho": null, "shop": "supermarket", "wheelchair": "limited", "operator": null, "website": null, "organic": null, "amenity": null, "brand": null, "ref_vatin": null, "note": null, "alt_name": null, "old_name": null }, "geometry": { "type": "Point", "coordinates": [ 15.892433996043422, 41.259151992502652 ] } },
{ "type": "Feature", "properties": { "osm_id": "node\/294472162", "name": "Eurospar", "opening_ho": null, "shop": "supermarket", "wheelchair": "yes", "operator": null, "website": null, "organic": null, "amenity": null, "brand": null, "ref_vatin": null, "note": null, "alt_name": null, "old_name": null }, "geometry": { "type": "Point", "coordinates": [ 11.0407811000041, 45.907973799993634 ] } },
{ "type": "Feature", "properties": { "osm_id": "node\/294768368", "name": "Pewex", "opening_ho": null, "shop": "supermarket", "wheelchair": null, "operator": "Cetorelli Domenico S.r.l.", "website": null, "organic": null, "amenity": null, "brand": null, "ref_vatin": "IT09462811002", "note": null, "alt_name": null, "old_name": null }, "geometry": { "type": "Point", "coordinates": [ 12.490921300083278, 41.844630599864537 ] } },
{ "type": "Feature", "properties": { "osm_id": "node\/295475128", "name": "DiPerDì", "opening_ho": null, "shop": "supermarket", "wheelchair": null, "operator": null, "website": null, "organic": null, "amenity": null, "brand": null, "ref_vatin": null, "note": null, "alt_name": null, "old_name": null }, "geometry": { "type": "Point", "coordinates": [ 9.1905717, 45.1774729 ] } },
{ "type": "Feature", "properties": { "osm_id": "node\/296066526", "name": "Dico", "opening_ho": null, "shop": "supermarket", "wheelchair": null, "operator": null, "website": null, "organic": null, "amenity": null, "brand": null, "ref_vatin": null, "note": null, "alt_name": null, "old_name": null }, "geometry": { "type": "Point", "coordinates": [ 9.702985300000023, 40.385599699999986 ] } },
{ "type": "Feature", "properties": { "osm_id": "node\/296537658", "name": "Callegaro", "opening_ho": null, "shop": "supermarket", "wheelchair": null, "operator": null, "website": null, "organic": null, "amenity": null, "brand": null, "ref_vatin": null, "note": null, "alt_name": null, "old_name": null }, "geometry": { "type": "Point", "coordinates": [ 11.80774980002033, 45.764281399957213 ] } },
{ "type": "Feature", "properties": { "osm_id": "node\/296859586", "name": "Dpiù", "opening_ho": null, "shop": "supermarket", "wheelchair": null, "operator": null, "website": null, "organic": null, "amenity": null, "brand": null, "ref_vatin": null, "note": null, "alt_name": null, "old_name": null }, "geometry": { "type": "Point", "coordinates": [ 12.221905500043325, 44.693449099905749 ] } },
{ "type": "Feature", "properties": { "osm_id": "node\/296955042", "name": "Metà", "opening_ho": null, "shop": "supermarket", "wheelchair": null, "operator": null, "website": null, "organic": null, "amenity": null, "brand": null, "ref_vatin": null, "note": null, "alt_name": null, "old_name": null }, "geometry": { "type": "Point", "coordinates": [ 11.870459600023349, 45.43594499995163 ] } },
{ "type": "Feature", "properties": { "osm_id": "node\/296955316", "name": "Eurospar", "opening_ho": null, "shop": "supermarket", "wheelchair": null, "operator": null, "website": null, "organic": null, "amenity": null, "brand": null, "ref_vatin": null, "note": null, "alt_name": null, "old_name": null }, "geometry": { "type": "Point", "coordinates": [ 11.871986200023377, 45.448481199951466 ] } },
{ "type": "Feature", "properties": { "osm_id": "node\/296963264", "name": "Dogal", "opening_ho": null, "shop": "supermarket", "wheelchair": null, "operator": null, "website": null, "organic": null, "amenity": null, "brand": null, "ref_vatin": null, "note": null, "alt_name": null, "old_name": null }, "geometry": { "type": "Point", "coordinates": [ 11.886786400023979, 45.440342699949966 ] } },
{ "type": "Feature", "properties": { "osm_id": "node\/297181497", "name": "Spar", "opening_ho": null, "shop": "supermarket", "wheelchair": null, "operator": null, "website": null, "organic": null, "amenity": null, "brand": null, "ref_vatin": null, "note": null, "alt_name": null, "old_name": null }, "geometry": { "type": "Point", "coordinates": [ 12.239288000042528, 45.075247299901392 ] } },
{ "type": "Feature", "properties": { "osm_id": "node\/297700039", "name": "Esselunga", "opening_ho": null, "shop": "supermarket", "wheelchair": null, "operator": null, "website": null, "organic": null, "amenity": null, "brand": null, "ref_vatin": null, "note": null, "alt_name": null, "old_name": null }, "geometry": { "type": "Point", "coordinates": [ 9.1341992, 45.4696845 ] } },
{ "type": "Feature", "properties": { "osm_id": "node\/297940888", "name": "Super Mac", "opening_ho": null, "shop": "supermarket", "wheelchair": null, "operator": null, "website": null, "organic": null, "amenity": null, "brand": null, "ref_vatin": null, "note": null, "alt_name": null, "old_name": null }, "geometry": { "type": "Point", "coordinates": [ 18.198571706785284, 40.138930664025878 ] } },
{ "type": "Feature", "properties": { "osm_id": "node\/298086062", "name": "Eurospin", "opening_ho": null, "shop": "supermarket", "wheelchair": null, "operator": null, "website": null, "organic": null, "amenity": null, "brand": null, "ref_vatin": null, "note": null, "alt_name": null, "old_name": null }, "geometry": { "type": "Point", "coordinates": [ 11.132972100005055, 46.089381099991662 ] } },
{ "type": "Feature", "properties": { "osm_id": "node\/298323387", "name": "Pescatore", "opening_ho": null, "shop": "supermarket", "wheelchair": null, "operator": null, "website": null, "organic": null, "amenity": null, "brand": null, "ref_vatin": null, "note": null, "alt_name": null, "old_name": null },